{"ECN":27932,"Name":"Miguel Coranti","ActiveVANs":567,"AccountBalance":8072324.0,"address":{"Line1":"","Line2":"","Line3":"","Suburb":"","State":"","Country":"","Latitude":-32.202924,"Longitude":-64.404945}}{"ECN":522084,"Name":"Busa Péter","ActiveVANs":712,"AccountBalance":9251704.0,"address":{"Line1":"","Line2":"","Line3":"","Suburb":"","State":"","Country":"","Latitude":47.867077,"Longitude":17.470493}}{"ECN":1578881,"Name":"rosina lamberti","ActiveVANs":539,"AccountBalance":2720846.0,"address":{"Line1":"","Line2":"","Line3":"","Suburb":"","State":"","Country":"","Latitude":-37.766372,"Longitude":145.141754}}{"ECN":97671,"Name":"Kyryl","ActiveVANs":620,"AccountBalance":1417152.0,"address":{"Line1":"","Line2":"","Line3":"","Suburb":"","State":"","Country":"","Latitude":46.639301,"Longitude":30.785408}}{"ECN":25514,"Name":"Roberto Garcia","ActiveVANs":805,"AccountBalance":7208956.0,"address":{"Line1":"","Line2":"","Line3":"","Suburb":"","State":"","Country":"","Latitude":10.479372,"Longitude":-84.693432}}{"ECN":57823,"Name":"Norbert MAIER","ActiveVANs":285,"AccountBalance":8419394.0,"address":{"Line1":"","Line2":"","Line3":"","Suburb":"","State":"","Country":"","Latitude":47.409968,"Longitude":12.900009}}{"ECN":532693,"Name":"Snemann","ActiveVANs":852,"AccountBalance":5797419.0,"address":{"Line1":"","Line2":"","Line3":"","Suburb":"","State":"","Country":"","Latitude":59.637472,"Longitude":11.272659}}{"ECN":57819,"Name":"Norbert MAIER","ActiveVANs":791,"AccountBalance":1547746.0,"address":{"Line1":"","Line2":"","Line3":"","Suburb":"","State":"","Country":"","Latitude":47.483221,"Longitude":13.189259}}{"ECN":1282387,"Name":"Jean-Michel Raggioli","ActiveVANs":827,"AccountBalance":3036627.0,"address":{"Line1":"","Line2":"","Line3":"","Suburb":"","State":"","Country":"","Latitude":14.493688,"Longitude":-61.013432}}{"ECN":945976,"Name":"Arcadi","ActiveVANs":972,"AccountBalance":9135489.0,"address":{"Line1":"","Line2":"","Line3":"","Suburb":"","State":"","Country":"","Latitude":40.903783,"Longitude":0.490866}}{"ECN":73514,"Name":"Norbert MAIER","ActiveVANs":750,"AccountBalance":8362532.0,"address":{"Line1":"","Line2":"","Line3":"","Suburb":"","State":"","Country":"","Latitude":47.609519,"Longitude":12.852459}}{"ECN":298967,"Name":"Artusi","ActiveVANs":997,"AccountBalance":3104964.0,"address":{"Line1":"","Line2":"","Line3":"","Suburb":"","State":"","Country":"","Latitude":36.894037,"Longitude":-111.40789}}{"ECN":88151,"Name":"Michele Masnata","ActiveVANs":868,"AccountBalance":6417589.0,"address":{"Line1":"","Line2":"","Line3":"","Suburb":"","State":"","Country":"","Latitude":46.257746,"Longitude":8.838158}}{"ECN":6463,"Name":"Sonia Villegas","ActiveVANs":871,"AccountBalance":4252079.0,"address":{"Line1":"","Line2":"","Line3":"","Suburb":"","State":"","Country":"","Latitude":43.269159,"Longitude":-2.933736}}{"ECN":107980,"Name":"Ziębol","ActiveVANs":814,"AccountBalance":8763064.0,"address":{"Line1":"","Line2":"","Line3":"","Suburb":"","State":"","Country":"","Latitude":43.337255,"Longitude":17.8152}}{"ECN":9439,"Name":"heavenearth","ActiveVANs":486,"AccountBalance":1750832.0,"address":{"Line1":"","Line2":"","Line3":"","Suburb":"","State":"","Country":"","Latitude":-16.5,"Longitude":-151.75}}{"ECN":673131,"Name":"Kjetil Vaage Øie","ActiveVANs":996,"AccountBalance":7517988.0,"address":{"Line1":"","Line2":"","Line3":"","Suburb":"","State":"","Country":"","Latitude":62.226676,"Longitude":6.108742}}{"ECN":346269,"Name":"illusandpics.com","ActiveVANs":257,"AccountBalance":3692337.0,"address":{"Line1":"","Line2":"","Line3":"","Suburb":"","State":"","Country":"","Latitude":43.064389,"Longitude":11.616282}}{"ECN":290039,"Name":"enriquevidalphoto.com","ActiveVANs":864,"AccountBalance":3089951.0,"address":{"Line1":"","Line2":"","Line3":"","Suburb":"","State":"","Country":"","Latitude":-52.430295,"Longitude":-59.070311}}{"ECN":1870141,"Name":"Phil©","ActiveVANs":348,"AccountBalance":5204097.0,"address":{"Line1":"","Line2":"","Line3":"","Suburb":"","State":"","Country":"","Latitude":45.922199,"Longitude":1.314712}}{"ECN":516809,"Name":"Busa Péter","ActiveVANs":648,"AccountBalance":2095803.0,"address":{"Line1":"","Line2":"","Line3":"","Suburb":"","State":"","Country":"","Latitude":47.535341,"Longitude":18.239279}}{"ECN":67347,"Name":"Marco Teodonio","ActiveVANs":672,"AccountBalance":5660004.0,"address":{"Line1":"","Line2":"","Line3":"","Suburb":"","State":"","Country":"","Latitude":-20.552438,"Longitude":-67.549438}}{"ECN":405822,"Name":"中村脩-Osamu nakamura","ActiveVANs":977,"AccountBalance":1806224.0,"address":{"Line1":"","Line2":"","Line3":"","Suburb":"","State":"","Country":"","Latitude":37.8715,"Longitude":139.011619}}{"ECN":233619,"Name":"Andrzej Wierzchon","ActiveVANs":907,"AccountBalance":2318060.0,"address":{"Line1":"","Line2":"","Line3":"","Suburb":"","State":"","Country":"","Latitude":52.242353,"Longitude":21.035728}}{"ECN":1516726,"Name":"Korotnev AV","ActiveVANs":523,"AccountBalance":4539671.0,"address":{"Line1":"","Line2":"","Line3":"","Suburb":"","State":"","Country":"","Latitude":56.081999,"Longitude":160.587502}}{"ECN":70975,"Name":"Davide Bernacchi","ActiveVANs":143,"AccountBalance":9780952.0,"address":{"Line1":"","Line2":"","Line3":"","Suburb":"","State":"","Country":"","Latitude":46.245801,"Longitude":8.024461}}{"ECN":882660,"Name":"John Gillett","ActiveVANs":440,"AccountBalance":2410497.0,"address":{"Line1":"","Line2":"","Line3":"","Suburb":"","State":"","Country":"","Latitude":43.321353,"Longitude":-79.798197}}{"ECN":9363990,"Name":"Dejah","ActiveVANs":667,"AccountBalance":7308826.0,"address":{"Line1":"","Line2":"","Line3":"","Suburb":"","State":"","Country":"","Latitude":-46.647138,"Longitude":-72.607527}}{"ECN":1884507,"Name":"中村脩-Osamu nakamura","ActiveVANs":809,"AccountBalance":5024391.0,"address":{"Line1":"","Line2":"","Line3":"","Suburb":"","State":"","Country":"","Latitude":37.909669,"Longitude":139.243813}}{"ECN":1343502,"Name":"Korotnev AV","ActiveVANs":156,"AccountBalance":8979140.0,"address":{"Line1":"","Line2":"","Line3":"","Suburb":"","State":"","Country":"","Latitude":54.025419,"Longitude":159.480114}}{"ECN":97723,"Name":"Andreas G.M.","ActiveVANs":400,"AccountBalance":2950615.0,"address":{"Line1":"","Line2":"","Line3":"","Suburb":"","State":"","Country":"","Latitude":39.852352,"Longitude":2.805762}}{"ECN":537672,"Name":"Paulo J Moreira","ActiveVANs":327,"AccountBalance":9293773.0,"address":{"Line1":"","Line2":"","Line3":"","Suburb":"","State":"","Country":"","Latitude":41.068821,"Longitude":-8.659008}}{"ECN":204924,"Name":"mikel ortega","ActiveVANs":334,"AccountBalance":2102703.0,"address":{"Line1":"","Line2":"","Line3":"","Suburb":"","State":"","Country":"","Latitude":43.24514,"Longitude":-1.806951}}{"ECN":114795,"Name":"Andreas G.M.","ActiveVANs":845,"AccountBalance":2005746.0,"address":{"Line1":"","Line2":"","Line3":"","Suburb":"","State":"","Country":"","Latitude":51.665741,"Longitude":7.70618}}{"ECN":1287881,"Name":"Andrey Larin","ActiveVANs":422,"AccountBalance":5224030.0,"address":{"Line1":"","Line2":"","Line3":"","Suburb":"","State":"","Country":"","Latitude":65.829148,"Longitude":44.215508}}{"ECN":1781717,"Name":"JeffSullivan (www.MyPhotoGuides.com)","ActiveVANs":290,"AccountBalance":6187719.0,"address":{"Line1":"","Line2":"","Line3":"","Suburb":"","State":"","Country":"","Latitude":37.312154,"Longitude":-113.047771}}{"ECN":196103,"Name":"www.oscarsanchez.net","ActiveVANs":955,"AccountBalance":5518236.0,"address":{"Line1":"","Line2":"","Line3":"","Suburb":"","State":"","Country":"","Latitude":39.349166,"Longitude":-0.323882}}{"ECN":266224,"Name":"Kjetil Vaage Øie","ActiveVANs":364,"AccountBalance":6412152.0,"address":{"Line1":"","Line2":"","Line3":"","Suburb":"","State":"","Country":"","Latitude":68.908534,"Longitude":24.373169}}{"ECN":6126294,"Name":"marksimms","ActiveVANs":263,"AccountBalance":5314530.0,"address":{"Line1":"","Line2":"","Line3":"","Suburb":"","State":"","Country":"","Latitude":51.44589,"Longitude":-0.275195}}{"ECN":168032,"Name":"Brent Townshend","ActiveVANs":332,"AccountBalance":7877577.0,"address":{"Line1":"","Line2":"","Line3":"","Suburb":"","State":"","Country":"","Latitude":48.853891,"Longitude":2.33699}}{"ECN":1370932,"Name":"jimwitkowski","ActiveVANs":734,"AccountBalance":7394939.0,"address":{"Line1":"","Line2":"","Line3":"","Suburb":"","State":"","Country":"","Latitude":-36.817685,"Longitude":175.699196}}{"ECN":120844,"Name":"Juan Kratzmaier","ActiveVANs":901,"AccountBalance":4606074.0,"address":{"Line1":"","Line2":"","Line3":"","Suburb":"","State":"","Country":"","Latitude":-62.485684,"Longitude":-59.683228}}{"ECN":940294,"Name":"Lukas Novak","ActiveVANs":832,"AccountBalance":5085782.0,"address":{"Line1":"","Line2":"","Line3":"","Suburb":"","State":"","Country":"","Latitude":36.461537,"Longitude":25.376015}}{"ECN":4446084,"Name":"Busa Péter","ActiveVANs":734,"AccountBalance":8549645.0,"address":{"Line1":"","Line2":"","Line3":"","Suburb":"","State":"","Country":"","Latitude":47.842773,"Longitude":17.504482}}{"ECN":498352,"Name":"Don Albonico","ActiveVANs":184,"AccountBalance":5263417.0,"address":{"Line1":"","Line2":"","Line3":"","Suburb":"","State":"","Country":"","Latitude":36.995972,"Longitude":-112.005315}}{"ECN":775893,"Name":"Achim Mittler","ActiveVANs":559,"AccountBalance":4620945.0,"address":{"Line1":"","Line2":"","Line3":"","Suburb":"","State":"","Country":"","Latitude":-3.818353,"Longitude":36.046829}}{"ECN":665502,"Name":"Ron Cooper","ActiveVANs":252,"AccountBalance":4503666.0,"address":{"Line1":"","Line2":"","Line3":"","Suburb":"","State":"","Country":"","Latitude":44.519888,"Longitude":-124.07753}}{"ECN":9021415,"Name":"picsonthemove","ActiveVANs":219,"AccountBalance":4534884.0,"address":{"Line1":"","Line2":"","Line3":"","Suburb":"","State":"","Country":"","Latitude":8.42884,"Longitude":98.471628}}{"ECN":287244,"Name":"NAGY Albert","ActiveVANs":882,"AccountBalance":7431096.0,"address":{"Line1":"","Line2":"","Line3":"","Suburb":"","State":"","Country":"","Latitude":46.681229,"Longitude":9.675007}}{"ECN":677366,"Name":"Snemann","ActiveVANs":331,"AccountBalance":8675392.0,"address":{"Line1":"","Line2":"","Line3":"","Suburb":"","State":"","Country":"","Latitude":59.663926,"Longitude":10.771065}}{"ECN":196086,"Name":"www.oscarsanchez.net","ActiveVANs":334,"AccountBalance":8067562.0,"address":{"Line1":"","Line2":"","Line3":"","Suburb":"","State":"","Country":"","Latitude":39.349166,"Longitude":-0.323882}}{"ECN":4340931,"Name":"© alfredschaffer","ActiveVANs":809,"AccountBalance":1014951.0,"address":{"Line1":"","Line2":"","Line3":"","Suburb":"","State":"","Country":"","Latitude":49.342559,"Longitude":12.113349}}{"ECN":488,"Name":"Eduardo Manchón","ActiveVANs":263,"AccountBalance":5247320.0,"address":{"Line1":"","Line2":"","Line3":"","Suburb":"","State":"","Country":"","Latitude":16.111297,"Longitude":-91.677904}}{"ECN":723666,"Name":"Lukas Novak","ActiveVANs":122,"AccountBalance":8884409.0,"address":{"Line1":"","Line2":"","Line3":"","Suburb":"","State":"","Country":"","Latitude":51.327608,"Longitude":-116.175613}}{"ECN":1081710,"Name":"Sigmund Rise","ActiveVANs":876,"AccountBalance":1265649.0,"address":{"Line1":"","Line2":"","Line3":"","Suburb":"","State":"","Country":"","Latitude":62.686749,"Longitude":9.412537}}{"ECN":22575,"Name":"Placebo","ActiveVANs":567,"AccountBalance":3783258.0,"address":{"Line1":"","Line2":"","Line3":"","Suburb":"","State":"","Country":"","Latitude":24.962716,"Longitude":110.454826}}{"ECN":2735754,"Name":"Erwin Woenckhaus","ActiveVANs":269,"AccountBalance":3690324.0,"address":{"Line1":"","Line2":"","Line3":"","Suburb":"","State":"","Country":"","Latitude":-39.809583,"Longitude":-73.241998}}{"ECN":73515,"Name":"Norbert MAIER","ActiveVANs":263,"AccountBalance":6612906.0,"address":{"Line1":"","Line2":"","Line3":"","Suburb":"","State":"","Country":"","Latitude":47.815575,"Longitude":12.850227}}{"ECN":723015,"Name":"Lukas Novak","ActiveVANs":393,"AccountBalance":8665331.0,"address":{"Line1":"","Line2":"","Line3":"","Suburb":"","State":"","Country":"","Latitude":48.385898,"Longitude":-124.7267}}{"ECN":1288595,"Name":"mabut","ActiveVANs":196,"AccountBalance":8256437.0,"address":{"Line1":"","Line2":"","Line3":"","Suburb":"","State":"","Country":"","Latitude":4.038162,"Longitude":72.920637}}{"ECN":1008304,"Name":"ozalph","ActiveVANs":475,"AccountBalance":9909605.0,"address":{"Line1":"","Line2":"","Line3":"","Suburb":"","State":"","Country":"","Latitude":55.679762,"Longitude":12.59119}}{"ECN":19547,"Name":"Arcadi","ActiveVANs":116,"AccountBalance":8961757.0,"address":{"Line1":"","Line2":"","Line3":"","Suburb":"","State":"","Country":"","Latitude":40.904172,"Longitude":0.49314}}{"ECN":98115,"Name":"Andreas G.M.","ActiveVANs":962,"AccountBalance":8281463.0,"address":{"Line1":"","Line2":"","Line3":"","Suburb":"","State":"","Country":"","Latitude":50.487112,"Longitude":9.908917}}{"ECN":9822056,"Name":"funtor","ActiveVANs":466,"AccountBalance":6050153.0,"address":{"Line1":"","Line2":"","Line3":"","Suburb":"","State":"","Country":"","Latitude":1.286973,"Longitude":103.853851}}{"ECN":9117094,"Name":"Alan Knox","ActiveVANs":432,"AccountBalance":9115104.0,"address":{"Line1":"","Line2":"","Line3":"","Suburb":"","State":"","Country":"","Latitude":55.773532,"Longitude":-3.986835}}{"ECN":5342534,"Name":"Busa Péter","ActiveVANs":758,"AccountBalance":5206566.0,"address":{"Line1":"","Line2":"","Line3":"","Suburb":"","State":"","Country":"","Latitude":47.875426,"Longitude":15.964594}}{"ECN":2346129,"Name":"Busa Péter","ActiveVANs":299,"AccountBalance":4651476.0,"address":{"Line1":"","Line2":"","Line3":"","Suburb":"","State":"","Country":"","Latitude":47.748558,"Longitude":17.52182}}{"ECN":3749005,"Name":"Richard Ryer","ActiveVANs":553,"AccountBalance":9276717.0,"address":{"Line1":"","Line2":"","Line3":"","Suburb":"","State":"","Country":"","Latitude":40.29456,"Longitude":-105.65408}}{"ECN":1360629,"Name":"Enrique Ortiz de Zárate","ActiveVANs":930,"AccountBalance":8998146.0,"address":{"Line1":"","Line2":"","Line3":"","Suburb":"","State":"","Country":"","Latitude":42.976199,"Longitude":-2.9098}}{"ECN":6129915,"Name":"Busa Péter","ActiveVANs":296,"AccountBalance":4080703.0,"address":{"Line1":"","Line2":"","Line3":"","Suburb":"","State":"","Country":"","Latitude":47.854408,"Longitude":17.521133}}{"ECN":67183,"Name":"Marco Teodonio","ActiveVANs":485,"AccountBalance":8463777.0,"address":{"Line1":"","Line2":"","Line3":"","Suburb":"","State":"","Country":"","Latitude":-22.787696,"Longitude":-67.819161}}{"ECN":507571,"Name":"Busa Péter","ActiveVANs":978,"AccountBalance":1574537.0,"address":{"Line1":"","Line2":"","Line3":"","Suburb":"","State":"","Country":"","Latitude":47.587873,"Longitude":17.684383}}{"ECN":6685422,"Name":"TS Jeung","ActiveVANs":959,"AccountBalance":2811290.0,"address":{"Line1":"","Line2":"","Line3":"","Suburb":"","State":"","Country":"","Latitude":21.169045,"Longitude":94.860935}}{"ECN":3513121,"Name":"Ponty István","ActiveVANs":292,"AccountBalance":8831724.0,"address":{"Line1":"","Line2":"","Line3":"","Suburb":"","State":"","Country":"","Latitude":47.457576,"Longitude":17.481651}}{"ECN":10574161,"Name":"VFedele","ActiveVANs":286,"AccountBalance":5583345.0,"address":{"Line1":"","Line2":"","Line3":"","Suburb":"","State":"","Country":"","Latitude":-35.304724,"Longitude":148.662905}}{"ECN":89190,"Name":"Ardani","ActiveVANs":159,"AccountBalance":1159065.0,"address":{"Line1":"","Line2":"","Line3":"","Suburb":"","State":"","Country":"","Latitude":40.195299,"Longitude":44.4839}}{"ECN":1182305,"Name":"Mast","ActiveVANs":646,"AccountBalance":5061346.0,"address":{"Line1":"","Line2":"","Line3":"","Suburb":"","State":"","Country":"","Latitude":48.793465,"Longitude":8.5005}}{"ECN":4258015,"Name":"Busa Péter","ActiveVANs":492,"AccountBalance":3437367.0,"address":{"Line1":"","Line2":"","Line3":"","Suburb":"","State":"","Country":"","Latitude":46.851269,"Longitude":16.391602}}{"ECN":1413,"Name":"JC","ActiveVANs":790,"AccountBalance":9131127.0,"address":{"Line1":"","Line2":"","Line3":"","Suburb":"","State":"","Country":"","Latitude":45.50764,"Longitude":-75.912872}}{"ECN":1526763,"Name":"xflo:w (http://www.xflo.net)","ActiveVANs":138,"AccountBalance":4355798.0,"address":{"Line1":"","Line2":"","Line3":"","Suburb":"","State":"","Country":"","Latitude":29.966721,"Longitude":31.133537}}{"ECN":8802900,"Name":"Olivier Faugeras","ActiveVANs":158,"AccountBalance":5176979.0,"address":{"Line1":"","Line2":"","Line3":"","Suburb":"","State":"","Country":"","Latitude":43.405079,"Longitude":5.054559}}{"ECN":459515,"Name":"中村脩-Osamu nakamura","ActiveVANs":556,"AccountBalance":9645403.0,"address":{"Line1":"","Line2":"","Line3":"","Suburb":"","State":"","Country":"","Latitude":38.069312,"Longitude":138.423271}}{"ECN":749464,"Name":"©Franco Truscello","ActiveVANs":367,"AccountBalance":1464596.0,"address":{"Line1":"","Line2":"","Line3":"","Suburb":"","State":"","Country":"","Latitude":45.434053,"Longitude":12.336917}}{"ECN":422608,"Name":"中村脩-Osamu nakamura","ActiveVANs":178,"AccountBalance":8046045.0,"address":{"Line1":"","Line2":"","Line3":"","Suburb":"","State":"","Country":"","Latitude":37.449787,"Longitude":139.047089}}{"ECN":85617,"Name":"Juanra","ActiveVANs":815,"AccountBalance":3358143.0,"address":{"Line1":"","Line2":"","Line3":"","Suburb":"","State":"","Country":"","Latitude":37.594104,"Longitude":-0.739861}}{"ECN":1089235,"Name":"Busa Péter","ActiveVANs":731,"AccountBalance":4939371.0,"address":{"Line1":"","Line2":"","Line3":"","Suburb":"","State":"","Country":"","Latitude":47.318578,"Longitude":18.207092}}{"ECN":505229,"Name":"Philippe Stoop","ActiveVANs":669,"AccountBalance":7885045.0,"address":{"Line1":"","Line2":"","Line3":"","Suburb":"","State":"","Country":"","Latitude":47.312642,"Longitude":5.168552}}{"ECN":679343,"Name":"sid1662","ActiveVANs":439,"AccountBalance":6290738.0,"address":{"Line1":"","Line2":"","Line3":"","Suburb":"","State":"","Country":"","Latitude":-37.819616,"Longitude":144.968119}}{"ECN":436336,"Name":"中村脩-Osamu nakamura","ActiveVANs":112,"AccountBalance":9591022.0,"address":{"Line1":"","Line2":"","Line3":"","Suburb":"","State":"","Country":"","Latitude":36.911608,"Longitude":137.831554}}{"ECN":9733680,"Name":"funtor","ActiveVANs":936,"AccountBalance":7818191.0,"address":{"Line1":"","Line2":"","Line3":"","Suburb":"","State":"","Country":"","Latitude":-33.848588,"Longitude":151.209834}}{"ECN":7415625,"Name":"Neim Sejfuli ♦","ActiveVANs":635,"AccountBalance":5833946.0,"address":{"Line1":"","Line2":"","Line3":"","Suburb":"","State":"","Country":"","Latitude":42.01155,"Longitude":21.077271}}{"ECN":5358174,"Name":"Lukas Novak","ActiveVANs":418,"AccountBalance":8738639.0,"address":{"Line1":"","Line2":"","Line3":"","Suburb":"","State":"","Country":"","Latitude":44.47502,"Longitude":-110.843537}}{"ECN":316199,"Name":"www.turclubmai.ru","ActiveVANs":851,"AccountBalance":7428690.0,"address":{"Line1":"","Line2":"","Line3":"","Suburb":"","State":"","Country":"","Latitude":35.877298,"Longitude":76.73255}}{"ECN":400536,"Name":"Bruce MacIver","ActiveVANs":874,"AccountBalance":7935400.0,"address":{"Line1":"","Line2":"","Line3":"","Suburb":"","State":"","Country":"","Latitude":37.811411,"Longitude":-119.495888}}{"ECN":2942693,"Name":"Adam Salwanowicz","ActiveVANs":973,"AccountBalance":3093236.0,"address":{"Line1":"","Line2":"","Line3":"","Suburb":"","State":"","Country":"","Latitude":52.594393,"Longitude":4.864798}}{"ECN":9733633,"Name":"funtor","ActiveVANs":237,"AccountBalance":1170926.0,"address":{"Line1":"","Line2":"","Line3":"","Suburb":"","State":"","Country":"","Latitude":-33.851702,"Longitude":151.216968}}{"ECN":1800454,"Name":"Tom Grubbe","ActiveVANs":861,"AccountBalance":8613014.0,"address":{"Line1":"","Line2":"","Line3":"","Suburb":"","State":"","Country":"","Latitude":33.347316,"Longitude":-115.729235}}{"ECN":2558057,"Name":"Kyryl","ActiveVANs":349,"AccountBalance":9681671.0,"address":{"Line1":"","Line2":"","Line3":"","Suburb":"","State":"","Country":"","Latitude":46.639301,"Longitude":30.785751}}{"ECN":7768089,"Name":"Busa Péter","ActiveVANs":390,"AccountBalance":1143734.0,"address":{"Line1":"","Line2":"","Line3":"","Suburb":"","State":"","Country":"","Latitude":47.776425,"Longitude":17.507057}}{"ECN":1213006,"Name":"Lukas Novak","ActiveVANs":789,"AccountBalance":9127658.0,"address":{"Line1":"","Line2":"","Line3":"","Suburb":"","State":"","Country":"","Latitude":51.095841,"Longitude":-114.481916}}{"ECN":395800,"Name":"Philippe Stoop","ActiveVANs":202,"AccountBalance":4877377.0,"address":{"Line1":"","Line2":"","Line3":"","Suburb":"","State":"","Country":"","Latitude":44.610146,"Longitude":6.05587}}{"ECN":11073609,"Name":"k.andre","ActiveVANs":167,"AccountBalance":9510663.0,"address":{"Line1":"","Line2":"","Line3":"","Suburb":"","State":"","Country":"","Latitude":36.797775,"Longitude":21.952747}}{"ECN":6564418,"Name":"Alan Knox","ActiveVANs":827,"AccountBalance":6657994.0,"address":{"Line1":"","Line2":"","Line3":"","Suburb":"","State":"","Country":"","Latitude":55.772808,"Longitude":-3.989239}}{"ECN":10158925,"Name":"♣ Víctor S de Lara ♣","ActiveVANs":446,"AccountBalance":8580302.0,"address":{"Line1":"","Line2":"","Line3":"","Suburb":"","State":"","Country":"","Latitude":39.612565,"Longitude":-0.47636}}{"ECN":121574,"Name":"javier herranz","ActiveVANs":166,"AccountBalance":8630137.0,"address":{"Line1":"","Line2":"","Line3":"","Suburb":"","State":"","Country":"","Latitude":55.753033,"Longitude":37.621951}}{"ECN":6012915,"Name":"Norbert MAIER","ActiveVANs":331,"AccountBalance":8310980.0,"address":{"Line1":"","Line2":"","Line3":"","Suburb":"","State":"","Country":"","Latitude":45.433364,"Longitude":12.340747}}{"ECN":346687,"Name":"illusandpics.com","ActiveVANs":976,"AccountBalance":3567277.0,"address":{"Line1":"","Line2":"","Line3":"","Suburb":"","State":"","Country":"","Latitude":-24.72937,"Longitude":15.408325}}{"ECN":1913758,"Name":"Klesitz Piroska","ActiveVANs":799,"AccountBalance":5747703.0,"address":{"Line1":"","Line2":"","Line3":"","Suburb":"","State":"","Country":"","Latitude":43.273659,"Longitude":11.988916}}{"ECN":405843,"Name":"中村脩-Osamu nakamura","ActiveVANs":199,"AccountBalance":6823784.0,"address":{"Line1":"","Line2":"","Line3":"","Suburb":"","State":"","Country":"","Latitude":37.726398,"Longitude":138.789682}}{"ECN":91375,"Name":"Matthew Walters","ActiveVANs":212,"AccountBalance":6249203.0,"address":{"Line1":"","Line2":"","Line3":"","Suburb":"","State":"","Country":"","Latitude":25.140312,"Longitude":55.187416}}{"ECN":940792,"Name":"Lukas Novak","ActiveVANs":272,"AccountBalance":3851111.0,"address":{"Line1":"","Line2":"","Line3":"","Suburb":"","State":"","Country":"","Latitude":51.325946,"Longitude":-116.177502}}{"ECN":58287,"Name":"Norbert MAIER","ActiveVANs":831,"AccountBalance":6066483.0,"address":{"Line1":"","Line2":"","Line3":"","Suburb":"","State":"","Country":"","Latitude":47.74454,"Longitude":13.068817}}{"ECN":194118,"Name":"taoy","ActiveVANs":198,"AccountBalance":7139925.0,"address":{"Line1":"","Line2":"","Line3":"","Suburb":"","State":"","Country":"","Latitude":35.377294,"Longitude":138.727455}}{"ECN":5158892,"Name":"Margherita-Italy","ActiveVANs":632,"AccountBalance":8083504.0,"address":{"Line1":"","Line2":"","Line3":"","Suburb":"","State":"","Country":"","Latitude":46.471044,"Longitude":11.557188}}{"ECN":280123,"Name":"Lachaud Franck","ActiveVANs":538,"AccountBalance":4716116.0,"address":{"Line1":"","Line2":"","Line3":"","Suburb":"","State":"","Country":"","Latitude":31.355662,"Longitude":-9.799418}}{"ECN":6789223,"Name":"Michael Braxenthaler","ActiveVANs":338,"AccountBalance":9976732.0,"address":{"Line1":"","Line2":"","Line3":"","Suburb":"","State":"","Country":"","Latitude":12.522579,"Longitude":-69.930505}}{"ECN":3722547,"Name":"Michael Braxenthaler","ActiveVANs":269,"AccountBalance":1241844.0,"address":{"Line1":"","Line2":"","Line3":"","Suburb":"","State":"","Country":"","Latitude":47.521142,"Longitude":10.591164}}{"ECN":9530458,"Name":"4ullas","ActiveVANs":679,"AccountBalance":2480662.0,"address":{"Line1":"","Line2":"","Line3":"","Suburb":"","State":"","Country":"","Latitude":41.198451,"Longitude":-2.87447}}{"ECN":2935974,"Name":"Enrique Ortiz de Zárate","ActiveVANs":516,"AccountBalance":4670683.0,"address":{"Line1":"","Line2":"","Line3":"","Suburb":"","State":"","Country":"","Latitude":42.95124,"Longitude":-2.324982}}{"ECN":38587,"Name":"Paul Feiler","ActiveVANs":146,"AccountBalance":2859743.0,"address":{"Line1":"","Line2":"","Line3":"","Suburb":"","State":"","Country":"","Latitude":48.489947,"Longitude":7.949853}}{"ECN":9312247,"Name":"Samo T.","ActiveVANs":396,"AccountBalance":1160916.0,"address":{"Line1":"","Line2":"","Line3":"","Suburb":"","State":"","Country":"","Latitude":45.955625,"Longitude":13.965683}}{"ECN":110409,"Name":"Luis Torres","ActiveVANs":727,"AccountBalance":2100464.0,"address":{"Line1":"","Line2":"","Line3":"","Suburb":"","State":"","Country":"","Latitude":-9.071585,"Longitude":-77.640553}}{"ECN":7609439,"Name":"Busa Péter","ActiveVANs":977,"AccountBalance":4063733.0,"address":{"Line1":"","Line2":"","Line3":"","Suburb":"","State":"","Country":"","Latitude":47.877556,"Longitude":15.965366}}{"ECN":8599453,"Name":"Enrique Ortiz de Zárate","ActiveVANs":140,"AccountBalance":6045398.0,"address":{"Line1":"","Line2":"","Line3":"","Suburb":"","State":"","Country":"","Latitude":43.033953,"Longitude":-2.780957}}{"ECN":233921,"Name":"werni","ActiveVANs":161,"AccountBalance":7751350.0,"address":{"Line1":"","Line2":"","Line3":"","Suburb":"","State":"","Country":"","Latitude":46.841583,"Longitude":8.410742}}{"ECN":561386,"Name":"中村脩-Osamu nakamura","ActiveVANs":868,"AccountBalance":7077569.0,"address":{"Line1":"","Line2":"","Line3":"","Suburb":"","State":"","Country":"","Latitude":37.602196,"Longitude":138.871393}}{"ECN":1195112,"Name":"mabut","ActiveVANs":901,"AccountBalance":2647440.0,"address":{"Line1":"","Line2":"","Line3":"","Suburb":"","State":"","Country":"","Latitude":-24.545249,"Longitude":-67.361984}}{"ECN":5466129,"Name":"Armagnac","ActiveVANs":740,"AccountBalance":8173666.0,"address":{"Line1":"","Line2":"","Line3":"","Suburb":"","State":"","Country":"","Latitude":46.663398,"Longitude":-1.9013}}{"ECN":57820,"Name":"Norbert MAIER","ActiveVANs":656,"AccountBalance":5605521.0,"address":{"Line1":"","Line2":"","Line3":"","Suburb":"","State":"","Country":"","Latitude":47.55504,"Longitude":13.649054}}{"ECN":798312,"Name":"©Franco Truscello","ActiveVANs":852,"AccountBalance":2132567.0,"address":{"Line1":"","Line2":"","Line3":"","Suburb":"","State":"","Country":"","Latitude":45.069925,"Longitude":7.677534}}{"ECN":7401432,"Name":"[[[   PIXELECTA   ]]]","ActiveVANs":133,"AccountBalance":6379041.0,"address":{"Line1":"","Line2":"","Line3":"","Suburb":"","State":"","Country":"","Latitude":43.005338,"Longitude":-2.775679}}{"ECN":2584132,"Name":"wisdomcomplex","ActiveVANs":419,"AccountBalance":6947442.0,"address":{"Line1":"","Line2":"","Line3":"","Suburb":"","State":"","Country":"","Latitude":43.418889,"Longitude":142.426586}}{"ECN":4670499,"Name":"Erwin Woenckhaus","ActiveVANs":624,"AccountBalance":3340167.0,"address":{"Line1":"","Line2":"","Line3":"","Suburb":"","State":"","Country":"","Latitude":-39.821285,"Longitude":-73.227739}}{"ECN":5133875,"Name":"Neim Sejfuli ♦","ActiveVANs":661,"AccountBalance":9519780.0,"address":{"Line1":"","Line2":"","Line3":"","Suburb":"","State":"","Country":"","Latitude":42.006671,"Longitude":21.075597}}{"ECN":8309167,"Name":"funtor","ActiveVANs":677,"AccountBalance":6517094.0,"address":{"Line1":"","Line2":"","Line3":"","Suburb":"","State":"","Country":"","Latitude":29.161137,"Longitude":-13.439734}}{"ECN":1756166,"Name":"rosina lamberti","ActiveVANs":158,"AccountBalance":7324949.0,"address":{"Line1":"","Line2":"","Line3":"","Suburb":"","State":"","Country":"","Latitude":41.89854,"Longitude":12.476842}}{"ECN":1831309,"Name":"Snemann","ActiveVANs":635,"AccountBalance":9267921.0,"address":{"Line1":"","Line2":"","Line3":"","Suburb":"","State":"","Country":"","Latitude":59.664143,"Longitude":10.771322}}{"ECN":626487,"Name":"Busa Péter","ActiveVANs":328,"AccountBalance":2562462.0,"address":{"Line1":"","Line2":"","Line3":"","Suburb":"","State":"","Country":"","Latitude":43.589468,"Longitude":15.919275}}{"ECN":202162,"Name":"Don Albonico","ActiveVANs":657,"AccountBalance":7214980.0,"address":{"Line1":"","Line2":"","Line3":"","Suburb":"","State":"","Country":"","Latitude":36.97681,"Longitude":-110.094552}}{"ECN":791016,"Name":"www.sliwi.de","ActiveVANs":629,"AccountBalance":7919695.0,"address":{"Line1":"","Line2":"","Line3":"","Suburb":"","State":"","Country":"","Latitude":-24.730656,"Longitude":15.289364}}{"ECN":9760518,"Name":"Nicolas Aubé","ActiveVANs":673,"AccountBalance":1281295.0,"address":{"Line1":"","Line2":"","Line3":"","Suburb":"","State":"","Country":"","Latitude":49.08251,"Longitude":0.596437}}{"ECN":2097684,"Name":"John Gillett","ActiveVANs":746,"AccountBalance":7634641.0,"address":{"Line1":"","Line2":"","Line3":"","Suburb":"","State":"","Country":"","Latitude":43.299447,"Longitude":-79.793916}}{"ECN":6851021,"Name":"Neim Sejfuli ♦","ActiveVANs":603,"AccountBalance":6311815.0,"address":{"Line1":"","Line2":"","Line3":"","Suburb":"","State":"","Country":"","Latitude":42.007532,"Longitude":21.077871}}{"ECN":8137868,"Name":"TS Jeung","ActiveVANs":196,"AccountBalance":1046938.0,"address":{"Line1":"","Line2":"","Line3":"","Suburb":"","State":"","Country":"","Latitude":36.498597,"Longitude":126.333847}}{"ECN":382104,"Name":"evgenidinev.com","ActiveVANs":383,"AccountBalance":8619745.0,"address":{"Line1":"","Line2":"","Line3":"","Suburb":"","State":"","Country":"","Latitude":39.743626,"Longitude":21.616974}}{"ECN":3399014,"Name":"Philippe Stoop","ActiveVANs":591,"AccountBalance":9556420.0,"address":{"Line1":"","Line2":"","Line3":"","Suburb":"","State":"","Country":"","Latitude":47.562396,"Longitude":13.055191}}{"ECN":29596,"Name":"Miguel Coranti","ActiveVANs":614,"AccountBalance":9333578.0,"address":{"Line1":"","Line2":"","Line3":"","Suburb":"","State":"","Country":"","Latitude":-13.165304,"Longitude":-72.5459}}{"ECN":1269713,"Name":"Svein Solhaug","ActiveVANs":252,"AccountBalance":7587103.0,"address":{"Line1":"","Line2":"","Line3":"","Suburb":"","State":"","Country":"","Latitude":70.295137,"Longitude":30.906601}}{"ECN":507631,"Name":"Busa Péter","ActiveVANs":696,"AccountBalance":1324399.0,"address":{"Line1":"","Line2":"","Line3":"","Suburb":"","State":"","Country":"","Latitude":47.866667,"Longitude":17.466667}}{"ECN":722974,"Name":"Lukas Novak","ActiveVANs":585,"AccountBalance":7436168.0,"address":{"Line1":"","Line2":"","Line3":"","Suburb":"","State":"","Country":"","Latitude":51.048544,"Longitude":-114.087481}}{"ECN":1118007,"Name":"mypictures4u.com","ActiveVANs":744,"AccountBalance":1889520.0,"address":{"Line1":"","Line2":"","Line3":"","Suburb":"","State":"","Country":"","Latitude":51.328091,"Longitude":-116.177673}}{"ECN":1343943,"Name":"avni_","ActiveVANs":927,"AccountBalance":5098161.0,"address":{"Line1":"","Line2":"","Line3":"","Suburb":"","State":"","Country":"","Latitude":-49.381814,"Longitude":-72.422905}}{"ECN":5637365,"Name":"markku pirttimaa www.karhukuusamo.com","ActiveVANs":716,"AccountBalance":2361089.0,"address":{"Line1":"","Line2":"","Line3":"","Suburb":"","State":"","Country":"","Latitude":66.247365,"Longitude":28.599129}}{"ECN":241562,"Name":"Frank Block","ActiveVANs":171,"AccountBalance":9748148.0,"address":{"Line1":"","Line2":"","Line3":"","Suburb":"","State":"","Country":"","Latitude":63.954261,"Longitude":-17.512207}}{"ECN":48899,"Name":"Perry Tang","ActiveVANs":936,"AccountBalance":5841818.0,"address":{"Line1":"","Line2":"","Line3":"","Suburb":"","State":"","Country":"","Latitude":36.112778,"Longitude":-115.174227}}{"ECN":49822,"Name":"errece","ActiveVANs":259,"AccountBalance":9346953.0,"address":{"Line1":"","Line2":"","Line3":"","Suburb":"","State":"","Country":"","Latitude":37.018248,"Longitude":-3.983274}}{"ECN":8248490,"Name":"Samo T.","ActiveVANs":931,"AccountBalance":1607539.0,"address":{"Line1":"","Line2":"","Line3":"","Suburb":"","State":"","Country":"","Latitude":46.340336,"Longitude":13.650362}}{"ECN":459528,"Name":"中村脩-Osamu nakamura","ActiveVANs":540,"AccountBalance":1050004.0,"address":{"Line1":"","Line2":"","Line3":"","Suburb":"","State":"","Country":"","Latitude":38.282391,"Longitude":139.895782}}{"ECN":50203,"Name":"baldinger reisen ag, waedenswil/switzerland","ActiveVANs":891,"AccountBalance":6559669.0,"address":{"Line1":"","Line2":"","Line3":"","Suburb":"","State":"","Country":"","Latitude":64.762124,"Longitude":-18.132935}}{"ECN":51502,"Name":"JesusVillalba","ActiveVANs":191,"AccountBalance":9928937.0,"address":{"Line1":"","Line2":"","Line3":"","Suburb":"","State":"","Country":"","Latitude":51.500969,"Longitude":-0.121665}}{"ECN":3671663,"Name":"Enrique Ortiz de Zárate","ActiveVANs":237,"AccountBalance":6569663.0,"address":{"Line1":"","Line2":"","Line3":"","Suburb":"","State":"","Country":"","Latitude":42.951271,"Longitude":-2.324831}}{"ECN":1928780,"Name":"Ziębol","ActiveVANs":668,"AccountBalance":8154119.0,"address":{"Line1":"","Line2":"","Line3":"","Suburb":"","State":"","Country":"","Latitude":50.106075,"Longitude":19.952137}}{"ECN":10068109,"Name":"picsonthemove","ActiveVANs":159,"AccountBalance":2029340.0,"address":{"Line1":"","Line2":"","Line3":"","Suburb":"","State":"","Country":"","Latitude":46.620436,"Longitude":14.284313}}{"ECN":8730264,"Name":"bobpercy","ActiveVANs":218,"AccountBalance":7024059.0,"address":{"Line1":"","Line2":"","Line3":"","Suburb":"","State":"","Country":"","Latitude":55.020727,"Longitude":-1.420702}}{"ECN":330436,"Name":"illusandpics.com","ActiveVANs":773,"AccountBalance":5695955.0,"address":{"Line1":"","Line2":"","Line3":"","Suburb":"","State":"","Country":"","Latitude":-20.180046,"Longitude":-67.876625}}{"ECN":10287647,"Name":"Luud Riphagen","ActiveVANs":559,"AccountBalance":6254871.0,"address":{"Line1":"","Line2":"","Line3":"","Suburb":"","State":"","Country":"","Latitude":52.218099,"Longitude":6.177192}}{"ECN":436323,"Name":"中村脩-Osamu nakamura","ActiveVANs":235,"AccountBalance":8853978.0,"address":{"Line1":"","Line2":"","Line3":"","Suburb":"","State":"","Country":"","Latitude":37.930016,"Longitude":139.057925}}{"ECN":298350,"Name":"ThoiryK","ActiveVANs":147,"AccountBalance":5841103.0,"address":{"Line1":"","Line2":"","Line3":"","Suburb":"","State":"","Country":"","Latitude":-27.125567,"Longitude":-109.27651}}{"ECN":85618,"Name":"Juanra","ActiveVANs":200,"AccountBalance":3370085.0,"address":{"Line1":"","Line2":"","Line3":"","Suburb":"","State":"","Country":"","Latitude":37.599544,"Longitude":-1.331406}}{"ECN":3804107,"Name":"T NL","ActiveVANs":146,"AccountBalance":4668987.0,"address":{"Line1":"","Line2":"","Line3":"","Suburb":"","State":"","Country":"","Latitude":24.095443,"Longitude":32.887723}}{"ECN":369885,"Name":"Nicola Vachon","ActiveVANs":559,"AccountBalance":2212514.0,"address":{"Line1":"","Line2":"","Line3":"","Suburb":"","State":"","Country":"","Latitude":43.308816,"Longitude":-70.563126}}{"ECN":4819425,"Name":"Nicolas Mertens","ActiveVANs":168,"AccountBalance":7995746.0,"address":{"Line1":"","Line2":"","Line3":"","Suburb":"","State":"","Country":"","Latitude":51.501169,"Longitude":3.479254}}{"ECN":88122,"Name":"Michele Masnata","ActiveVANs":702,"AccountBalance":6571776.0,"address":{"Line1":"","Line2":"","Line3":"","Suburb":"","State":"","Country":"","Latitude":45.723008,"Longitude":6.999636}}{"ECN":10219582,"Name":"antorenz","ActiveVANs":124,"AccountBalance":5535908.0,"address":{"Line1":"","Line2":"","Line3":"","Suburb":"","State":"","Country":"","Latitude":36.97081,"Longitude":-110.091248}}{"ECN":558167,"Name":"Busa Péter","ActiveVANs":493,"AccountBalance":2478439.0,"address":{"Line1":"","Line2":"","Line3":"","Suburb":"","State":"","Country":"","Latitude":47.409038,"Longitude":18.001614}}{"ECN":7113068,"Name":"Busa Péter","ActiveVANs":867,"AccountBalance":1406936.0,"address":{"Line1":"","Line2":"","Line3":"","Suburb":"","State":"","Country":"","Latitude":47.77556,"Longitude":17.522507}}{"ECN":2920885,"Name":"© Kojak","ActiveVANs":940,"AccountBalance":5930774.0,"address":{"Line1":"","Line2":"","Line3":"","Suburb":"","State":"","Country":"","Latitude":47.77096,"Longitude":10.620818}}{"ECN":2499825,"Name":"rosina lamberti","ActiveVANs":605,"AccountBalance":1877468.0,"address":{"Line1":"","Line2":"","Line3":"","Suburb":"","State":"","Country":"","Latitude":-37.770104,"Longitude":145.143299}}{"ECN":4536639,"Name":"Margherita-Italy","ActiveVANs":520,"AccountBalance":2117414.0,"address":{"Line1":"","Line2":"","Line3":"","Suburb":"","State":"","Country":"","Latitude":46.410227,"Longitude":11.575298}}{"ECN":314957,"Name":"NAGY Albert","ActiveVANs":449,"AccountBalance":6136248.0,"address":{"Line1":"","Line2":"","Line3":"","Suburb":"","State":"","Country":"","Latitude":50.086597,"Longitude":14.410307}}{"ECN":507214,"Name":"Busa Péter","ActiveVANs":117,"AccountBalance":4695872.0,"address":{"Line1":"","Line2":"","Line3":"","Suburb":"","State":"","Country":"","Latitude":47.390912,"Longitude":17.980499}}{"ECN":5551561,"Name":"mossip","ActiveVANs":300,"AccountBalance":4668426.0,"address":{"Line1":"","Line2":"","Line3":"","Suburb":"","State":"","Country":"","Latitude":55.39013,"Longitude":-5.663366}}{"ECN":67338,"Name":"Marco Teodonio","ActiveVANs":124,"AccountBalance":6339525.0,"address":{"Line1":"","Line2":"","Line3":"","Suburb":"","State":"","Country":"","Latitude":-20.439882,"Longitude":-67.539825}}{"ECN":436354,"Name":"中村脩-Osamu nakamura","ActiveVANs":799,"AccountBalance":1461396.0,"address":{"Line1":"","Line2":"","Line3":"","Suburb":"","State":"","Country":"","Latitude":38.31176,"Longitude":138.46138}}{"ECN":10068358,"Name":"picsonthemove","ActiveVANs":113,"AccountBalance":9560841.0,"address":{"Line1":"","Line2":"","Line3":"","Suburb":"","State":"","Country":"","Latitude":46.622326,"Longitude":14.294415}}{"ECN":1440137,"Name":"jimwitkowski","ActiveVANs":904,"AccountBalance":6540708.0,"address":{"Line1":"","Line2":"","Line3":"","Suburb":"","State":"","Country":"","Latitude":36.882641,"Longitude":-111.510887}}{"ECN":4809439,"Name":"JeffSullivan (www.MyPhotoGuides.com)","ActiveVANs":609,"AccountBalance":7248376.0,"address":{"Line1":"","Line2":"","Line3":"","Suburb":"","State":"","Country":"","Latitude":38.21142,"Longitude":-119.01397}}{"ECN":7806281,"Name":"Neim Sejfuli ♦","ActiveVANs":533,"AccountBalance":1166990.0,"address":{"Line1":"","Line2":"","Line3":"","Suburb":"","State":"","Country":"","Latitude":41.960958,"Longitude":21.138296}}{"ECN":821388,"Name":"Kjetil Vaage Øie","ActiveVANs":588,"AccountBalance":8686469.0,"address":{"Line1":"","Line2":"","Line3":"","Suburb":"","State":"","Country":"","Latitude":69.962616,"Longitude":23.229733}}{"ECN":946841,"Name":"faisasy","ActiveVANs":212,"AccountBalance":5026588.0,"address":{"Line1":"","Line2":"","Line3":"","Suburb":"","State":"","Country":"","Latitude":39.09503,"Longitude":-106.948385}}{"ECN":3719882,"Name":"Epi F.Villanueva","ActiveVANs":178,"AccountBalance":6645591.0,"address":{"Line1":"","Line2":"","Line3":"","Suburb":"","State":"","Country":"","Latitude":39.392428,"Longitude":-9.286709}}{"ECN":3418114,"Name":"Ponty István","ActiveVANs":309,"AccountBalance":6261038.0,"address":{"Line1":"","Line2":"","Line3":"","Suburb":"","State":"","Country":"","Latitude":47.837127,"Longitude":17.511692}}{"ECN":255257,"Name":"RomanV","ActiveVANs":701,"AccountBalance":5188920.0,"address":{"Line1":"","Line2":"","Line3":"","Suburb":"","State":"","Country":"","Latitude":43.372309,"Longitude":16.922604}}{"ECN":2346040,"Name":"Busa Péter","ActiveVANs":684,"AccountBalance":6424494.0,"address":{"Line1":"","Line2":"","Line3":"","Suburb":"","State":"","Country":"","Latitude":47.670589,"Longitude":15.539217}}{"ECN":1235900,"Name":"mabut","ActiveVANs":379,"AccountBalance":9595094.0,"address":{"Line1":"","Line2":"","Line3":"","Suburb":"","State":"","Country":"","Latitude":52.885706,"Longitude":-131.682816}}{"ECN":111554,"Name":"evgenidinev.com","ActiveVANs":163,"AccountBalance":9892347.0,"address":{"Line1":"","Line2":"","Line3":"","Suburb":"","State":"","Country":"","Latitude":42.550551,"Longitude":27.557831}}{"ECN":280112,"Name":"Lachaud Franck","ActiveVANs":887,"AccountBalance":5332803.0,"address":{"Line1":"","Line2":"","Line3":"","Suburb":"","State":"","Country":"","Latitude":31.156408,"Longitude":-3.985291}}{"ECN":5984,"Name":"Mrgud","ActiveVANs":448,"AccountBalance":1896010.0,"address":{"Line1":"","Line2":"","Line3":"","Suburb":"","State":"","Country":"","Latitude":33.715202,"Longitude":8.358536}}{"ECN":25513,"Name":"Roberto Garcia","ActiveVANs":920,"AccountBalance":7014129.0,"address":{"Line1":"","Line2":"","Line3":"","Suburb":"","State":"","Country":"","Latitude":10.6434,"Longitude":-85.046539}}{"ECN":35502,"Name":"ozzy","ActiveVANs":774,"AccountBalance":1685824.0,"address":{"Line1":"","Line2":"","Line3":"","Suburb":"","State":"","Country":"","Latitude":11.802834,"Longitude":-66.774902}}{"ECN":1656020,"Name":"Juanra","ActiveVANs":858,"AccountBalance":9779650.0,"address":{"Line1":"","Line2":"","Line3":"","Suburb":"","State":"","Country":"","Latitude":37.935804,"Longitude":-1.211929}}{"ECN":58341,"Name":"Norbert MAIER","ActiveVANs":540,"AccountBalance":5370793.0,"address":{"Line1":"","Line2":"","Line3":"","Suburb":"","State":"","Country":"","Latitude":45.490615,"Longitude":12.489095}}{"ECN":416310,"Name":"Richard Ryer","ActiveVANs":343,"AccountBalance":3135601.0,"address":{"Line1":"","Line2":"","Line3":"","Suburb":"","State":"","Country":"","Latitude":40.283192,"Longitude":-105.664272}}{"ECN":8148031,"Name":"baldinger reisen ag, waedenswil/switzerland","ActiveVANs":531,"AccountBalance":3158657.0,"address":{"Line1":"","Line2":"","Line3":"","Suburb":"","State":"","Country":"","Latitude":43.507102,"Longitude":4.45118}}{"ECN":1088575,"Name":"Busa Péter","ActiveVANs":159,"AccountBalance":5889673.0,"address":{"Line1":"","Line2":"","Line3":"","Suburb":"","State":"","Country":"","Latitude":47.521374,"Longitude":17.698631}}{"ECN":771169,"Name":"fotoartistry","ActiveVANs":599,"AccountBalance":6520834.0,"address":{"Line1":"","Line2":"","Line3":"","Suburb":"","State":"","Country":"","Latitude":52.113681,"Longitude":6.11077}}{"ECN":2334149,"Name":"Arcadi","ActiveVANs":998,"AccountBalance":9473207.0,"address":{"Line1":"","Line2":"","Line3":"","Suburb":"","State":"","Country":"","Latitude":40.904204,"Longitude":0.493269}}{"ECN":41688,"Name":"Csongor Böröczky","ActiveVANs":534,"AccountBalance":4533997.0,"address":{"Line1":"","Line2":"","Line3":"","Suburb":"","State":"","Country":"","Latitude":68.239368,"Longitude":14.256134}}{"ECN":6953,"Name":"Sonia Villegas","ActiveVANs":260,"AccountBalance":6747631.0,"address":{"Line1":"","Line2":"","Line3":"","Suburb":"","State":"","Country":"","Latitude":41.578599,"Longitude":2.191944}}{"ECN":10895432,"Name":"Б.Ярцев","ActiveVANs":764,"AccountBalance":6057041.0,"address":{"Line1":"","Line2":"","Line3":"","Suburb":"","State":"","Country":"","Latitude":51.644708,"Longitude":57.886791}}{"ECN":1446812,"Name":"Busa Péter","ActiveVANs":949,"AccountBalance":2567189.0,"address":{"Line1":"","Line2":"","Line3":"","Suburb":"","State":"","Country":"","Latitude":47.349408,"Longitude":17.808323}}{"ECN":4898495,"Name":"Busa Péter","ActiveVANs":766,"AccountBalance":1539882.0,"address":{"Line1":"","Line2":"","Line3":"","Suburb":"","State":"","Country":"","Latitude":47.261058,"Longitude":17.72438}}{"ECN":911298,"Name":"Svein Solhaug","ActiveVANs":892,"AccountBalance":9147894.0,"address":{"Line1":"","Line2":"","Line3":"","Suburb":"","State":"","Country":"","Latitude":78.179588,"Longitude":15.314941}}{"ECN":2169236,"Name":"rosina lamberti","ActiveVANs":767,"AccountBalance":1757812.0,"address":{"Line1":"","Line2":"","Line3":"","Suburb":"","State":"","Country":"","Latitude":-37.759859,"Longitude":145.128708}}{"ECN":237466,"Name":"Andrzej Wierzchon","ActiveVANs":375,"AccountBalance":4441042.0,"address":{"Line1":"","Line2":"","Line3":"","Suburb":"","State":"","Country":"","Latitude":52.253852,"Longitude":21.011347}}{"ECN":355519,"Name":"illusandpics.com","ActiveVANs":196,"AccountBalance":8872978.0,"address":{"Line1":"","Line2":"","Line3":"","Suburb":"","State":"","Country":"","Latitude":-23.75801,"Longitude":-67.798347}}{"ECN":58360,"Name":"Norbert MAIER","ActiveVANs":193,"AccountBalance":1442945.0,"address":{"Line1":"","Line2":"","Line3":"","Suburb":"","State":"","Country":"","Latitude":46.054173,"Longitude":10.966415}}{"ECN":10511168,"Name":"Neim Sejfuli ♦","ActiveVANs":644,"AccountBalance":2008643.0,"address":{"Line1":"","Line2":"","Line3":"","Suburb":"","State":"","Country":"","Latitude":42.007692,"Longitude":21.075296}}{"ECN":572526,"Name":"Snemann","ActiveVANs":224,"AccountBalance":7721631.0,"address":{"Line1":"","Line2":"","Line3":"","Suburb":"","State":"","Country":"","Latitude":60.563101,"Longitude":6.998119}}{"ECN":5303687,"Name":"Busa Péter","ActiveVANs":382,"AccountBalance":4884045.0,"address":{"Line1":"","Line2":"","Line3":"","Suburb":"","State":"","Country":"","Latitude":47.915997,"Longitude":15.934725}}{"ECN":370324,"Name":"bj00rn","ActiveVANs":987,"AccountBalance":4689178.0,"address":{"Line1":"","Line2":"","Line3":"","Suburb":"","State":"","Country":"","Latitude":62.636926,"Longitude":6.453094}}{"ECN":7996369,"Name":"Samo T.","ActiveVANs":583,"AccountBalance":7907641.0,"address":{"Line1":"","Line2":"","Line3":"","Suburb":"","State":"","Country":"","Latitude":46.360671,"Longitude":14.084473}}{"ECN":498385,"Name":"Tom Grubbe","ActiveVANs":460,"AccountBalance":5112964.0,"address":{"Line1":"","Line2":"","Line3":"","Suburb":"","State":"","Country":"","Latitude":37.601771,"Longitude":-119.084823}}{"ECN":571110,"Name":"Jens Gressmyr","ActiveVANs":990,"AccountBalance":9397081.0,"address":{"Line1":"","Line2":"","Line3":"","Suburb":"","State":"","Country":"","Latitude":70.075649,"Longitude":29.81535}}{"ECN":3904502,"Name":"Margherita-Italy","ActiveVANs":998,"AccountBalance":9955400.0,"address":{"Line1":"","Line2":"","Line3":"","Suburb":"","State":"","Country":"","Latitude":46.461257,"Longitude":11.33729}}{"ECN":1835001,"Name":"Korotnev AV","ActiveVANs":929,"AccountBalance":3456212.0,"address":{"Line1":"","Line2":"","Line3":"","Suburb":"","State":"","Country":"","Latitude":53.496828,"Longitude":158.595543}}{"ECN":91931,"Name":"Arnáiz","ActiveVANs":936,"AccountBalance":2692743.0,"address":{"Line1":"","Line2":"","Line3":"","Suburb":"","State":"","Country":"","Latitude":44.851975,"Longitude":15.599556}}{"ECN":515905,"Name":"Busa Péter","ActiveVANs":219,"AccountBalance":7012902.0,"address":{"Line1":"","Line2":"","Line3":"","Suburb":"","State":"","Country":"","Latitude":47.56506,"Longitude":17.625675}}{"ECN":7444056,"Name":"Busa Péter","ActiveVANs":311,"AccountBalance":4861049.0,"address":{"Line1":"","Line2":"","Line3":"","Suburb":"","State":"","Country":"","Latitude":46.850095,"Longitude":16.385422}}{"ECN":1674082,"Name":"Fabio Belli FABIOSO","ActiveVANs":644,"AccountBalance":4290303.0,"address":{"Line1":"","Line2":"","Line3":"","Suburb":"","State":"","Country":"","Latitude":40.689229,"Longitude":-74.042444}}{"ECN":798846,"Name":"Hank Waxman","ActiveVANs":546,"AccountBalance":4558507.0,"address":{"Line1":"","Line2":"","Line3":"","Suburb":"","State":"","Country":"","Latitude":36.878728,"Longitude":-111.391668}}{"ECN":21458,"Name":"Csongor Böröczky","ActiveVANs":939,"AccountBalance":7152677.0,"address":{"Line1":"","Line2":"","Line3":"","Suburb":"","State":"","Country":"","Latitude":46.544694,"Longitude":7.976074}}{"ECN":691681,"Name":"Wolfgang Wodeck","ActiveVANs":492,"AccountBalance":7117382.0,"address":{"Line1":"","Line2":"","Line3":"","Suburb":"","State":"","Country":"","Latitude":-26.989624,"Longitude":-48.62875}}{"ECN":564451,"Name":"Alexandra Buss","ActiveVANs":558,"AccountBalance":9545698.0,"address":{"Line1":"","Line2":"","Line3":"","Suburb":"","State":"","Country":"","Latitude":48.453409,"Longitude":7.88747}}{"ECN":1430151,"Name":"Klesitz Piroska","ActiveVANs":402,"AccountBalance":4339311.0,"address":{"Line1":"","Line2":"","Line3":"","Suburb":"","State":"","Country":"","Latitude":45.485966,"Longitude":12.416686}}{"ECN":3156915,"Name":"Josep Maria Alegre","ActiveVANs":328,"AccountBalance":4881817.0,"address":{"Line1":"","Line2":"","Line3":"","Suburb":"","State":"","Country":"","Latitude":50.846658,"Longitude":4.352152}}{"ECN":6126516,"Name":"marksimms","ActiveVANs":392,"AccountBalance":3764735.0,"address":{"Line1":"","Line2":"","Line3":"","Suburb":"","State":"","Country":"","Latitude":51.448565,"Longitude":-0.279776}}{"ECN":679356,"Name":"sid1662","ActiveVANs":618,"AccountBalance":5802509.0,"address":{"Line1":"","Line2":"","Line3":"","Suburb":"","State":"","Country":"","Latitude":-33.718234,"Longitude":150.363181}}{"ECN":462324,"Name":"Alex Petrov","ActiveVANs":673,"AccountBalance":9756440.0,"address":{"Line1":"","Line2":"","Line3":"","Suburb":"","State":"","Country":"","Latitude":32.797448,"Longitude":-106.25968}}{"ECN":9528831,"Name":"garethohara","ActiveVANs":693,"AccountBalance":4814078.0,"address":{"Line1":"","Line2":"","Line3":"","Suburb":"","State":"","Country":"","Latitude":3.845837,"Longitude":73.454686}}{"ECN":11825351,"Name":"(((Jose Daniel)))","ActiveVANs":924,"AccountBalance":8273337.0,"address":{"Line1":"","Line2":"","Line3":"","Suburb":"","State":"","Country":"","Latitude":10.410917,"Longitude":-75.539761}}{"ECN":459614,"Name":"中村脩-Osamu nakamura","ActiveVANs":177,"AccountBalance":3803577.0,"address":{"Line1":"","Line2":"","Line3":"","Suburb":"","State":"","Country":"","Latitude":37.756669,"Longitude":138.801785}}{"ECN":771974,"Name":"Lukas Novak","ActiveVANs":514,"AccountBalance":8506934.0,"address":{"Line1":"","Line2":"","Line3":"","Suburb":"","State":"","Country":"","Latitude":36.427576,"Longitude":25.42761}}{"ECN":1781649,"Name":"JeffSullivan (www.MyPhotoGuides.com)","ActiveVANs":950,"AccountBalance":9243941.0,"address":{"Line1":"","Line2":"","Line3":"","Suburb":"","State":"","Country":"","Latitude":37.73529,"Longitude":-119.60927}}{"ECN":8491500,"Name":"JeffSullivan (www.MyPhotoGuides.com)","ActiveVANs":924,"AccountBalance":9433593.0,"address":{"Line1":"","Line2":"","Line3":"","Suburb":"","State":"","Country":"","Latitude":37.723512,"Longitude":-119.623947}}{"ECN":9505599,"Name":"picsonthemove","ActiveVANs":889,"AccountBalance":7383609.0,"address":{"Line1":"","Line2":"","Line3":"","Suburb":"","State":"","Country":"","Latitude":-34.196443,"Longitude":18.450642}}{"ECN":1320563,"Name":"mabut","ActiveVANs":227,"AccountBalance":9532538.0,"address":{"Line1":"","Line2":"","Line3":"","Suburb":"","State":"","Country":"","Latitude":-5.724799,"Longitude":39.311485}}{"ECN":2381962,"Name":"rosina lamberti","ActiveVANs":941,"AccountBalance":6314093.0,"address":{"Line1":"","Line2":"","Line3":"","Suburb":"","State":"","Country":"","Latitude":-25.326959,"Longitude":131.054878}}{"ECN":92102,"Name":"Arnáiz","ActiveVANs":528,"AccountBalance":8678097.0,"address":{"Line1":"","Line2":"","Line3":"","Suburb":"","State":"","Country":"","Latitude":61.664788,"Longitude":6.887054}}{"ECN":7012377,"Name":"Busa Péter","ActiveVANs":398,"AccountBalance":7487351.0,"address":{"Line1":"","Line2":"","Line3":"","Suburb":"","State":"","Country":"","Latitude":47.760445,"Longitude":17.5177}}{"ECN":422769,"Name":"中村脩-Osamu nakamura","ActiveVANs":952,"AccountBalance":1358004.0,"address":{"Line1":"","Line2":"","Line3":"","Suburb":"","State":"","Country":"","Latitude":37.71141,"Longitude":138.862553}}{"ECN":4558763,"Name":"Jean-Michel Raggioli","ActiveVANs":637,"AccountBalance":6645536.0,"address":{"Line1":"","Line2":"","Line3":"","Suburb":"","State":"","Country":"","Latitude":42.255205,"Longitude":8.640404}}{"ECN":374479,"Name":"Yeoman","ActiveVANs":766,"AccountBalance":5410745.0,"address":{"Line1":"","Line2":"","Line3":"","Suburb":"","State":"","Country":"","Latitude":37.925514,"Longitude":22.997131}}{"ECN":2421991,"Name":"Lukas Novak","ActiveVANs":953,"AccountBalance":6600613.0,"address":{"Line1":"","Line2":"","Line3":"","Suburb":"","State":"","Country":"","Latitude":38.744118,"Longitude":-109.499032}}{"ECN":945978,"Name":"Arcadi","ActiveVANs":650,"AccountBalance":6391626.0,"address":{"Line1":"","Line2":"","Line3":"","Suburb":"","State":"","Country":"","Latitude":40.905015,"Longitude":0.495501}}{"ECN":48449,"Name":"errece","ActiveVANs":127,"AccountBalance":3359128.0,"address":{"Line1":"","Line2":"","Line3":"","Suburb":"","State":"","Country":"","Latitude":41.593702,"Longitude":1.84006}}{"ECN":572483,"Name":"Snemann","ActiveVANs":792,"AccountBalance":2629672.0,"address":{"Line1":"","Line2":"","Line3":"","Suburb":"","State":"","Country":"","Latitude":59.64476,"Longitude":11.278152}}{"ECN":2060897,"Name":"Nixpix","ActiveVANs":504,"AccountBalance":7191844.0,"address":{"Line1":"","Line2":"","Line3":"","Suburb":"","State":"","Country":"","Latitude":-26.540052,"Longitude":153.097685}}{"ECN":6327146,"Name":"©polytropos","ActiveVANs":378,"AccountBalance":6596102.0,"address":{"Line1":"","Line2":"","Line3":"","Suburb":"","State":"","Country":"","Latitude":47.01567,"Longitude":7.38107}}{"ECN":36476,"Name":"dancer","ActiveVANs":300,"AccountBalance":6419592.0,"address":{"Line1":"","Line2":"","Line3":"","Suburb":"","State":"","Country":"","Latitude":47.634164,"Longitude":13.911953}}{"ECN":436366,"Name":"中村脩-Osamu nakamura","ActiveVANs":760,"AccountBalance":6340207.0,"address":{"Line1":"","Line2":"","Line3":"","Suburb":"","State":"","Country":"","Latitude":37.828497,"Longitude":138.857231}}{"ECN":701842,"Name":"boerx","ActiveVANs":129,"AccountBalance":4593117.0,"address":{"Line1":"","Line2":"","Line3":"","Suburb":"","State":"","Country":"","Latitude":1.288897,"Longitude":103.855486}}{"ECN":6086623,"Name":"Busa Péter","ActiveVANs":544,"AccountBalance":5905728.0,"address":{"Line1":"","Line2":"","Line3":"","Suburb":"","State":"","Country":"","Latitude":47.660994,"Longitude":17.784977}}{"ECN":1595617,"Name":"rosina lamberti","ActiveVANs":360,"AccountBalance":4392251.0,"address":{"Line1":"","Line2":"","Line3":"","Suburb":"","State":"","Country":"","Latitude":-37.774785,"Longitude":145.137978}}{"ECN":74727,"Name":"wsm earp","ActiveVANs":434,"AccountBalance":9870347.0,"address":{"Line1":"","Line2":"","Line3":"","Suburb":"","State":"","Country":"","Latitude":27.904631,"Longitude":86.826496}}{"ECN":36086,"Name":"sergey duhanin","ActiveVANs":151,"AccountBalance":8058317.0,"address":{"Line1":"","Line2":"","Line3":"","Suburb":"","State":"","Country":"","Latitude":41.905695,"Longitude":12.454505}}{"ECN":2066940,"Name":"kristine hannon (www.traveltheglobe.be)","ActiveVANs":677,"AccountBalance":9447797.0,"address":{"Line1":"","Line2":"","Line3":"","Suburb":"","State":"","Country":"","Latitude":-50.009063,"Longitude":-73.264389}}{"ECN":1759754,"Name":"Philippe Buffard","ActiveVANs":528,"AccountBalance":8886186.0,"address":{"Line1":"","Line2":"","Line3":"","Suburb":"","State":"","Country":"","Latitude":20.208079,"Longitude":-12.734528}}{"ECN":5717808,"Name":"Sunpixx","ActiveVANs":290,"AccountBalance":5127427.0,"address":{"Line1":"","Line2":"","Line3":"","Suburb":"","State":"","Country":"","Latitude":47.575035,"Longitude":8.521459}}{"ECN":44853,"Name":"Peter Jansen","ActiveVANs":613,"AccountBalance":9737734.0,"address":{"Line1":"","Line2":"","Line3":"","Suburb":"","State":"","Country":"","Latitude":50.287009,"Longitude":7.663361}}{"ECN":57403,"Name":"Norbert MAIER","ActiveVANs":897,"AccountBalance":3907016.0,"address":{"Line1":"","Line2":"","Line3":"","Suburb":"","State":"","Country":"","Latitude":45.485365,"Longitude":12.420173}}{"ECN":13130,"Name":"Eric Medvet","ActiveVANs":373,"AccountBalance":3857183.0,"address":{"Line1":"","Line2":"","Line3":"","Suburb":"","State":"","Country":"","Latitude":43.312314,"Longitude":3.471251}}{"ECN":7375236,"Name":"Armagnac","ActiveVANs":915,"AccountBalance":6533946.0,"address":{"Line1":"","Line2":"","Line3":"","Suburb":"","State":"","Country":"","Latitude":47.557827,"Longitude":-0.500618}}{"ECN":3851701,"Name":"John Gillett","ActiveVANs":945,"AccountBalance":9648207.0,"address":{"Line1":"","Line2":"","Line3":"","Suburb":"","State":"","Country":"","Latitude":44.528271,"Longitude":-73.47579}}{"ECN":1235904,"Name":"mabut","ActiveVANs":548,"AccountBalance":3227018.0,"address":{"Line1":"","Line2":"","Line3":"","Suburb":"","State":"","Country":"","Latitude":52.834299,"Longitude":-131.616211}}{"ECN":50646,"Name":"Perry Tang","ActiveVANs":352,"AccountBalance":8693396.0,"address":{"Line1":"","Line2":"","Line3":"","Suburb":"","State":"","Country":"","Latitude":52.67862,"Longitude":-118.052559}}{"ECN":617458,"Name":"Arcadi","ActiveVANs":667,"AccountBalance":7561522.0,"address":{"Line1":"","Line2":"","Line3":"","Suburb":"","State":"","Country":"","Latitude":40.904091,"Longitude":0.492368}}{"ECN":52724,"Name":"Pieter","ActiveVANs":987,"AccountBalance":4188607.0,"address":{"Line1":"","Line2":"","Line3":"","Suburb":"","State":"","Country":"","Latitude":36.755665,"Longitude":22.574501}}{"ECN":289855,"Name":"enriquevidalphoto.com","ActiveVANs":106,"AccountBalance":2777252.0,"address":{"Line1":"","Line2":"","Line3":"","Suburb":"","State":"","Country":"","Latitude":-60.705448,"Longitude":-45.703125}}{"ECN":5649263,"Name":"© alfredschaffer","ActiveVANs":219,"AccountBalance":2760334.0,"address":{"Line1":"","Line2":"","Line3":"","Suburb":"","State":"","Country":"","Latitude":49.298711,"Longitude":12.070885}}{"ECN":110750,"Name":"Roman Sobolenko","ActiveVANs":280,"AccountBalance":6139170.0,"address":{"Line1":"","Line2":"","Line3":"","Suburb":"","State":"","Country":"","Latitude":59.94693,"Longitude":30.317802}}{"ECN":1870028,"Name":"Phil©","ActiveVANs":325,"AccountBalance":6637954.0,"address":{"Line1":"","Line2":"","Line3":"","Suburb":"","State":"","Country":"","Latitude":48.889175,"Longitude":2.247775}}{"ECN":52752,"Name":"Pieter","ActiveVANs":587,"AccountBalance":3218170.0,"address":{"Line1":"","Line2":"","Line3":"","Suburb":"","State":"","Country":"","Latitude":37.562405,"Longitude":22.792425}}{"ECN":2256672,"Name":"Enrique Ortiz de Zárate","ActiveVANs":658,"AccountBalance":8478102.0,"address":{"Line1":"","Line2":"","Line3":"","Suburb":"","State":"","Country":"","Latitude":42.493436,"Longitude":-2.579153}}{"ECN":519209,"Name":"Busa Péter","ActiveVANs":734,"AccountBalance":6159925.0,"address":{"Line1":"","Line2":"","Line3":"","Suburb":"","State":"","Country":"","Latitude":47.664809,"Longitude":17.627563}}{"ECN":10175554,"Name":"mabut","ActiveVANs":528,"AccountBalance":8658115.0,"address":{"Line1":"","Line2":"","Line3":"","Suburb":"","State":"","Country":"","Latitude":11.089976,"Longitude":119.670467}}{"ECN":11138384,"Name":"tiopepe8","ActiveVANs":145,"AccountBalance":3266462.0,"address":{"Line1":"","Line2":"","Line3":"","Suburb":"","State":"","Country":"","Latitude":46.513176,"Longitude":6.946986}}{"ECN":204255,"Name":"Snemann","ActiveVANs":744,"AccountBalance":4702735.0,"address":{"Line1":"","Line2":"","Line3":"","Suburb":"","State":"","Country":"","Latitude":60.564197,"Longitude":6.998978}}{"ECN":3871571,"Name":"PeSchn","ActiveVANs":360,"AccountBalance":7439705.0,"address":{"Line1":"","Line2":"","Line3":"","Suburb":"","State":"","Country":"","Latitude":47.54522,"Longitude":12.973351}}{"ECN":5358166,"Name":"Lukas Novak","ActiveVANs":543,"AccountBalance":8912290.0,"address":{"Line1":"","Line2":"","Line3":"","Suburb":"","State":"","Country":"","Latitude":36.262849,"Longitude":-112.709148}}{"ECN":600797,"Name":"boerx","ActiveVANs":644,"AccountBalance":3955729.0,"address":{"Line1":"","Line2":"","Line3":"","Suburb":"","State":"","Country":"","Latitude":22.279794,"Longitude":113.935831}}{"ECN":6459385,"Name":"Busa Péter","ActiveVANs":890,"AccountBalance":2118853.0,"address":{"Line1":"","Line2":"","Line3":"","Suburb":"","State":"","Country":"","Latitude":47.645846,"Longitude":17.598467}}{"ECN":522010,"Name":"Busa Péter","ActiveVANs":734,"AccountBalance":2819613.0,"address":{"Line1":"","Line2":"","Line3":"","Suburb":"","State":"","Country":"","Latitude":47.632545,"Longitude":17.562933}}{"ECN":4942642,"Name":"Busa Péter","ActiveVANs":238,"AccountBalance":9213803.0,"address":{"Line1":"","Line2":"","Line3":"","Suburb":"","State":"","Country":"","Latitude":47.646887,"Longitude":17.807121}}{"ECN":223798,"Name":"Mike Cavaroc","ActiveVANs":957,"AccountBalance":2096656.0,"address":{"Line1":"","Line2":"","Line3":"","Suburb":"","State":"","Country":"","Latitude":59.680146,"Longitude":-151.426835}}{"ECN":1946961,"Name":"Busa Péter","ActiveVANs":882,"AccountBalance":1125714.0,"address":{"Line1":"","Line2":"","Line3":"","Suburb":"","State":"","Country":"","Latitude":47.577684,"Longitude":18.273354}}{"ECN":821342,"Name":"Kjetil Vaage Øie","ActiveVANs":392,"AccountBalance":4377180.0,"address":{"Line1":"","Line2":"","Line3":"","Suburb":"","State":"","Country":"","Latitude":69.962969,"Longitude":23.234882}}{"ECN":9831100,"Name":"Busa Péter","ActiveVANs":793,"AccountBalance":3836342.0,"address":{"Line1":"","Line2":"","Line3":"","Suburb":"","State":"","Country":"","Latitude":47.567956,"Longitude":18.2131}}{"ECN":8294907,"Name":"Kevin Mikkelsen","ActiveVANs":165,"AccountBalance":7097684.0,"address":{"Line1":"","Line2":"","Line3":"","Suburb":"","State":"","Country":"","Latitude":36.993299,"Longitude":-112.007847}}{"ECN":7388668,"Name":"yossarian01","ActiveVANs":797,"AccountBalance":6938935.0,"address":{"Line1":"","Line2":"","Line3":"","Suburb":"","State":"","Country":"","Latitude":51.848929,"Longitude":15.746498}}{"ECN":617471,"Name":"Arcadi","ActiveVANs":995,"AccountBalance":1979606.0,"address":{"Line1":"","Line2":"","Line3":"","Suburb":"","State":"","Country":"","Latitude":40.904318,"Longitude":0.493505}}{"ECN":259612,"Name":"Hank Waxman","ActiveVANs":330,"AccountBalance":9326500.0,"address":{"Line1":"","Line2":"","Line3":"","Suburb":"","State":"","Country":"","Latitude":40.687472,"Longitude":-74.039698}}{"ECN":2282545,"Name":"esseil","ActiveVANs":793,"AccountBalance":4870435.0,"address":{"Line1":"","Line2":"","Line3":"","Suburb":"","State":"","Country":"","Latitude":43.818234,"Longitude":7.773911}}{"ECN":84795,"Name":"Carles Campsolinas Dresaire","ActiveVANs":823,"AccountBalance":4407437.0,"address":{"Line1":"","Line2":"","Line3":"","Suburb":"","State":"","Country":"","Latitude":-20.889688,"Longitude":25.830574}}{"ECN":6205,"Name":"Sonia Villegas","ActiveVANs":111,"AccountBalance":6174862.0,"address":{"Line1":"","Line2":"","Line3":"","Suburb":"","State":"","Country":"","Latitude":39.456143,"Longitude":-0.352764}}{"ECN":5255997,"Name":"Busa Péter","ActiveVANs":158,"AccountBalance":3621409.0,"address":{"Line1":"","Line2":"","Line3":"","Suburb":"","State":"","Country":"","Latitude":46.942762,"Longitude":17.417107}}{"ECN":4214336,"Name":"John Su","ActiveVANs":734,"AccountBalance":3287008.0,"address":{"Line1":"","Line2":"","Line3":"","Suburb":"","State":"","Country":"","Latitude":25.215347,"Longitude":110.342388}}{"ECN":611660,"Name":"Lair Jean Claude","ActiveVANs":631,"AccountBalance":8851079.0,"address":{"Line1":"","Line2":"","Line3":"","Suburb":"","State":"","Country":"","Latitude":-14.974528,"Longitude":-148.098224}}{"ECN":9822041,"Name":"funtor","ActiveVANs":723,"AccountBalance":2135887.0,"address":{"Line1":"","Line2":"","Line3":"","Suburb":"","State":"","Country":"","Latitude":1.288907,"Longitude":103.855219}}{"ECN":126820,"Name":"eulogio","ActiveVANs":929,"AccountBalance":4059002.0,"address":{"Line1":"","Line2":"","Line3":"","Suburb":"","State":"","Country":"","Latitude":27.172871,"Longitude":78.042165}}{"ECN":112504,"Name":"Dmitry Andreev","ActiveVANs":183,"AccountBalance":7369999.0,"address":{"Line1":"","Line2":"","Line3":"","Suburb":"","State":"","Country":"","Latitude":45.438213,"Longitude":12.335946}}{"ECN":1898139,"Name":"www.einkauf.tk","ActiveVANs":890,"AccountBalance":6247753.0,"address":{"Line1":"","Line2":"","Line3":"","Suburb":"","State":"","Country":"","Latitude":52.456836,"Longitude":13.158177}}{"ECN":57813,"Name":"Norbert MAIER","ActiveVANs":733,"AccountBalance":5163162.0,"address":{"Line1":"","Line2":"","Line3":"","Suburb":"","State":"","Country":"","Latitude":47.551274,"Longitude":13.652229}}{"ECN":533476,"Name":"WirelessMonkey","ActiveVANs":572,"AccountBalance":7081407.0,"address":{"Line1":"","Line2":"","Line3":"","Suburb":"","State":"","Country":"","Latitude":-33.964363,"Longitude":18.371286}}{"ECN":507370,"Name":"Busa Péter","ActiveVANs":533,"AccountBalance":4607737.0,"address":{"Line1":"","Line2":"","Line3":"","Suburb":"","State":"","Country":"","Latitude":47.781328,"Longitude":17.497959}}{"ECN":2422269,"Name":"Lukas Novak","ActiveVANs":405,"AccountBalance":6506884.0,"address":{"Line1":"","Line2":"","Line3":"","Suburb":"","State":"","Country":"","Latitude":36.062942,"Longitude":-112.124019}}{"ECN":2808348,"Name":"Marilyn Whiteley","ActiveVANs":946,"AccountBalance":8497076.0,"address":{"Line1":"","Line2":"","Line3":"","Suburb":"","State":"","Country":"","Latitude":46.193141,"Longitude":-82.973557}}{"ECN":2534183,"Name":"legui83","ActiveVANs":896,"AccountBalance":5468412.0,"address":{"Line1":"","Line2":"","Line3":"","Suburb":"","State":"","Country":"","Latitude":-37.382844,"Longitude":-69.934587}}{"ECN":1008446,"Name":"ozalph","ActiveVANs":165,"AccountBalance":9579325.0,"address":{"Line1":"","Line2":"","Line3":"","Suburb":"","State":"","Country":"","Latitude":47.516737,"Longitude":19.078649}}{"ECN":2935385,"Name":"Valter Galvani","ActiveVANs":418,"AccountBalance":3471362.0,"address":{"Line1":"","Line2":"","Line3":"","Suburb":"","State":"","Country":"","Latitude":43.964836,"Longitude":12.644491}}{"ECN":7586398,"Name":"Erwin Woenckhaus","ActiveVANs":458,"AccountBalance":7976980.0,"address":{"Line1":"","Line2":"","Line3":"","Suburb":"","State":"","Country":"","Latitude":-37.114747,"Longitude":-73.152337}}{"ECN":7624042,"Name":"Luud Riphagen","ActiveVANs":909,"AccountBalance":4395336.0,"address":{"Line1":"","Line2":"","Line3":"","Suburb":"","State":"","Country":"","Latitude":52.224684,"Longitude":6.06765}}{"ECN":1186930,"Name":"Andrey Jitkov","ActiveVANs":151,"AccountBalance":6203661.0,"address":{"Line1":"","Line2":"","Line3":"","Suburb":"","State":"","Country":"","Latitude":44.749903,"Longitude":34.413729}}{"ECN":565512,"Name":"Philippe Buffard","ActiveVANs":378,"AccountBalance":1641119.0,"address":{"Line1":"","Line2":"","Line3":"","Suburb":"","State":"","Country":"","Latitude":46.261262,"Longitude":5.646222}}{"ECN":3566705,"Name":"—Dragon-64— ✈","ActiveVANs":806,"AccountBalance":9079846.0,"address":{"Line1":"","Line2":"","Line3":"","Suburb":"","State":"","Country":"","Latitude":12.915027,"Longitude":100.868155}}{"ECN":50113,"Name":"Ken Gibson","ActiveVANs":660,"AccountBalance":9516388.0,"address":{"Line1":"","Line2":"","Line3":"","Suburb":"","State":"","Country":"","Latitude":40.696581,"Longitude":-73.997775}}{"ECN":74726,"Name":"wsm earp","ActiveVANs":780,"AccountBalance":4919563.0,"address":{"Line1":"","Line2":"","Line3":"","Suburb":"","State":"","Country":"","Latitude":27.979243,"Longitude":86.865978}}{"ECN":10552400,"Name":"DiggaTwigga","ActiveVANs":610,"AccountBalance":3580143.0,"address":{"Line1":"","Line2":"","Line3":"","Suburb":"","State":"","Country":"","Latitude":47.78796,"Longitude":-3.705075}}{"ECN":1605229,"Name":"Busa Péter","ActiveVANs":307,"AccountBalance":7056044.0,"address":{"Line1":"","Line2":"","Line3":"","Suburb":"","State":"","Country":"","Latitude":47.555214,"Longitude":17.748413}}{"ECN":34669,"Name":"Joaquín Ramirez","ActiveVANs":299,"AccountBalance":3774979.0,"address":{"Line1":"","Line2":"","Line3":"","Suburb":"","State":"","Country":"","Latitude":42.328664,"Longitude":-2.864685}}{"ECN":4596134,"Name":"Olivier Faugeras","ActiveVANs":914,"AccountBalance":2153401.0,"address":{"Line1":"","Line2":"","Line3":"","Suburb":"","State":"","Country":"","Latitude":43.696704,"Longitude":7.277198}}{"ECN":10576294,"Name":"(((Jose Daniel)))","ActiveVANs":907,"AccountBalance":6509705.0,"address":{"Line1":"","Line2":"","Line3":"","Suburb":"","State":"","Country":"","Latitude":4.597867,"Longitude":-74.075629}}{"ECN":522151,"Name":"Busa Péter","ActiveVANs":312,"AccountBalance":5077153.0,"address":{"Line1":"","Line2":"","Line3":"","Suburb":"","State":"","Country":"","Latitude":47.602401,"Longitude":17.611084}}{"ECN":4247476,"Name":"Quasebart","ActiveVANs":416,"AccountBalance":8844163.0,"address":{"Line1":"","Line2":"","Line3":"","Suburb":"","State":"","Country":"","Latitude":-22.948909,"Longitude":-43.156872}}{"ECN":5472461,"Name":"Kimmo Lyytikäinen","ActiveVANs":432,"AccountBalance":1843902.0,"address":{"Line1":"","Line2":"","Line3":"","Suburb":"","State":"","Country":"","Latitude":66.189241,"Longitude":29.187653}}{"ECN":472802,"Name":"Julia Wahl","ActiveVANs":819,"AccountBalance":7654018.0,"address":{"Line1":"","Line2":"","Line3":"","Suburb":"","State":"","Country":"","Latitude":37.827644,"Longitude":-122.481366}}{"ECN":506118,"Name":"Tom Grubbe","ActiveVANs":795,"AccountBalance":6824794.0,"address":{"Line1":"","Line2":"","Line3":"","Suburb":"","State":"","Country":"","Latitude":35.643016,"Longitude":-121.187868}}{"ECN":1420841,"Name":"Jacek M.","ActiveVANs":947,"AccountBalance":3856772.0,"address":{"Line1":"","Line2":"","Line3":"","Suburb":"","State":"","Country":"","Latitude":52.073123,"Longitude":20.63006}}{"ECN":4088401,"Name":"Larry Workman QIN","ActiveVANs":827,"AccountBalance":5512567.0,"address":{"Line1":"","Line2":"","Line3":"","Suburb":"","State":"","Country":"","Latitude":47.44086,"Longitude":-124.339828}}{"ECN":8049018,"Name":"JeffSullivan (www.MyPhotoGuides.com)","ActiveVANs":573,"AccountBalance":2131194.0,"address":{"Line1":"","Line2":"","Line3":"","Suburb":"","State":"","Country":"","Latitude":38.031698,"Longitude":-119.220543}}{"ECN":103324,"Name":"Luiz Henrique Assunção","ActiveVANs":237,"AccountBalance":5088867.0,"address":{"Line1":"","Line2":"","Line3":"","Suburb":"","State":"","Country":"","Latitude":-23.545394,"Longitude":-46.652606}}{"ECN":5694626,"Name":"© Marco De Candido","ActiveVANs":901,"AccountBalance":6255691.0,"address":{"Line1":"","Line2":"","Line3":"","Suburb":"","State":"","Country":"","Latitude":45.839025,"Longitude":8.717716}}{"ECN":1235876,"Name":"mabut","ActiveVANs":800,"AccountBalance":4534071.0,"address":{"Line1":"","Line2":"","Line3":"","Suburb":"","State":"","Country":"","Latitude":51.326321,"Longitude":-116.18042}}{"ECN":6999770,"Name":"Ntinos Lagos","ActiveVANs":870,"AccountBalance":5541575.0,"address":{"Line1":"","Line2":"","Line3":"","Suburb":"","State":"","Country":"","Latitude":39.498345,"Longitude":21.553481}}{"ECN":405727,"Name":"中村脩-Osamu nakamura","ActiveVANs":339,"AccountBalance":6382003.0,"address":{"Line1":"","Line2":"","Line3":"","Suburb":"","State":"","Country":"","Latitude":37.563222,"Longitude":139.042454}}{"ECN":1488363,"Name":"中村脩-Osamu nakamura","ActiveVANs":339,"AccountBalance":4595886.0,"address":{"Line1":"","Line2":"","Line3":"","Suburb":"","State":"","Country":"","Latitude":38.308932,"Longitude":138.454514}}{"ECN":841001,"Name":"evgenidinev.com","ActiveVANs":758,"AccountBalance":1405732.0,"address":{"Line1":"","Line2":"","Line3":"","Suburb":"","State":"","Country":"","Latitude":42.679306,"Longitude":24.963917}}{"ECN":57406,"Name":"Norbert MAIER","ActiveVANs":433,"AccountBalance":3431403.0,"address":{"Line1":"","Line2":"","Line3":"","Suburb":"","State":"","Country":"","Latitude":45.484567,"Longitude":12.419465}}{"ECN":1900891,"Name":"Syl de Canada","ActiveVANs":890,"AccountBalance":3586655.0,"address":{"Line1":"","Line2":"","Line3":"","Suburb":"","State":"","Country":"","Latitude":44.490873,"Longitude":-63.918285}}{"ECN":2135721,"Name":"Syl de Canada","ActiveVANs":227,"AccountBalance":6435463.0,"address":{"Line1":"","Line2":"","Line3":"","Suburb":"","State":"","Country":"","Latitude":45.253622,"Longitude":-74.21196}}{"ECN":426155,"Name":"enriquevidalphoto.com","ActiveVANs":304,"AccountBalance":4940310.0,"address":{"Line1":"","Line2":"","Line3":"","Suburb":"","State":"","Country":"","Latitude":39.837627,"Longitude":3.169695}}{"ECN":4868548,"Name":"Mrgud","ActiveVANs":731,"AccountBalance":7220962.0,"address":{"Line1":"","Line2":"","Line3":"","Suburb":"","State":"","Country":"","Latitude":43.183025,"Longitude":16.693211}}{"ECN":47069,"Name":"Santiago Rios","ActiveVANs":188,"AccountBalance":8948979.0,"address":{"Line1":"","Line2":"","Line3":"","Suburb":"","State":"","Country":"","Latitude":-32.834759,"Longitude":-70.130786}}{"ECN":1781731,"Name":"JeffSullivan (www.MyPhotoGuides.com)","ActiveVANs":256,"AccountBalance":1976732.0,"address":{"Line1":"","Line2":"","Line3":"","Suburb":"","State":"","Country":"","Latitude":37.310448,"Longitude":-113.052578}}{"ECN":2279,"Name":"Jeff T. Alu","ActiveVANs":544,"AccountBalance":3248409.0,"address":{"Line1":"","Line2":"","Line3":"","Suburb":"","State":"","Country":"","Latitude":40.744924,"Longitude":-73.987073}}{"ECN":1277992,"Name":"Canada-Fan","ActiveVANs":530,"AccountBalance":7559135.0,"address":{"Line1":"","Line2":"","Line3":"","Suburb":"","State":"","Country":"","Latitude":50.940826,"Longitude":6.96722}}{"ECN":207638,"Name":"Marco Ferrari","ActiveVANs":232,"AccountBalance":1860450.0,"address":{"Line1":"","Line2":"","Line3":"","Suburb":"","State":"","Country":"","Latitude":48.633547,"Longitude":-1.509504}}{"ECN":1452569,"Name":"Joaquín Ramirez","ActiveVANs":239,"AccountBalance":5051579.0,"address":{"Line1":"","Line2":"","Line3":"","Suburb":"","State":"","Country":"","Latitude":3.333333,"Longitude":-75.166667}}{"ECN":3502890,"Name":"Thodoris Kliafas","ActiveVANs":313,"AccountBalance":3816208.0,"address":{"Line1":"","Line2":"","Line3":"","Suburb":"","State":"","Country":"","Latitude":39.712601,"Longitude":21.627445}}{"ECN":595505,"Name":"John Gillett","ActiveVANs":850,"AccountBalance":8590331.0,"address":{"Line1":"","Line2":"","Line3":"","Suburb":"","State":"","Country":"","Latitude":43.326192,"Longitude":-79.79618}}{"ECN":60984,"Name":"Hector Fabian Garrido","ActiveVANs":637,"AccountBalance":8618695.0,"address":{"Line1":"","Line2":"","Line3":"","Suburb":"","State":"","Country":"","Latitude":-50.488641,"Longitude":-73.051872}}{"ECN":6654030,"Name":"VERJAGA","ActiveVANs":645,"AccountBalance":7942858.0,"address":{"Line1":"","Line2":"","Line3":"","Suburb":"","State":"","Country":"","Latitude":51.477962,"Longitude":4.776306}}{"ECN":3018575,"Name":"Erwin Woenckhaus","ActiveVANs":844,"AccountBalance":4603261.0,"address":{"Line1":"","Line2":"","Line3":"","Suburb":"","State":"","Country":"","Latitude":-39.838002,"Longitude":-73.279324}}{"ECN":521039,"Name":"Busa Péter","ActiveVANs":106,"AccountBalance":7549442.0,"address":{"Line1":"","Line2":"","Line3":"","Suburb":"","State":"","Country":"","Latitude":47.850146,"Longitude":17.463455}}{"ECN":208239,"Name":"Marco Ferrari","ActiveVANs":349,"AccountBalance":7042794.0,"address":{"Line1":"","Line2":"","Line3":"","Suburb":"","State":"","Country":"","Latitude":46.219515,"Longitude":7.321701}}{"ECN":6443936,"Name":"Busa Péter","ActiveVANs":495,"AccountBalance":5686984.0,"address":{"Line1":"","Line2":"","Line3":"","Suburb":"","State":"","Country":"","Latitude":47.915019,"Longitude":15.934124}}{"ECN":7467941,"Name":"Michael Braxenthaler","ActiveVANs":424,"AccountBalance":9299671.0,"address":{"Line1":"","Line2":"","Line3":"","Suburb":"","State":"","Country":"","Latitude":40.970106,"Longitude":-75.126133}}{"ECN":800436,"Name":"Alan Knox","ActiveVANs":908,"AccountBalance":7438377.0,"address":{"Line1":"","Line2":"","Line3":"","Suburb":"","State":"","Country":"","Latitude":48.858249,"Longitude":2.294576}}{"ECN":479673,"Name":"Snemann","ActiveVANs":777,"AccountBalance":2795580.0,"address":{"Line1":"","Line2":"","Line3":"","Suburb":"","State":"","Country":"","Latitude":62.642606,"Longitude":8.147736}}{"ECN":5378753,"Name":"Adam Salwanowicz","ActiveVANs":537,"AccountBalance":9055759.0,"address":{"Line1":"","Line2":"","Line3":"","Suburb":"","State":"","Country":"","Latitude":45.91384,"Longitude":6.847916}}{"ECN":382413,"Name":"hackltom","ActiveVANs":297,"AccountBalance":7728625.0,"address":{"Line1":"","Line2":"","Line3":"","Suburb":"","State":"","Country":"","Latitude":-3.046583,"Longitude":37.382355}}{"ECN":290784,"Name":"enriquevidalphoto.com","ActiveVANs":109,"AccountBalance":1143484.0,"address":{"Line1":"","Line2":"","Line3":"","Suburb":"","State":"","Country":"","Latitude":39.92844,"Longitude":3.116437}}{"ECN":519904,"Name":"Busa Péter","ActiveVANs":207,"AccountBalance":5837573.0,"address":{"Line1":"","Line2":"","Line3":"","Suburb":"","State":"","Country":"","Latitude":47.631851,"Longitude":18.680878}}{"ECN":181264,"Name":"Caveranger","ActiveVANs":327,"AccountBalance":6727230.0,"address":{"Line1":"","Line2":"","Line3":"","Suburb":"","State":"","Country":"","Latitude":4.024121,"Longitude":114.824553}}{"ECN":323533,"Name":"Gastón Dapik","ActiveVANs":900,"AccountBalance":9279334.0,"address":{"Line1":"","Line2":"","Line3":"","Suburb":"","State":"","Country":"","Latitude":-12.974261,"Longitude":-38.512552}}{"ECN":512513,"Name":"Busa Péter","ActiveVANs":129,"AccountBalance":6088872.0,"address":{"Line1":"","Line2":"","Line3":"","Suburb":"","State":"","Country":"","Latitude":47.796148,"Longitude":17.481308}}{"ECN":10237287,"Name":"k.andre","ActiveVANs":508,"AccountBalance":3680602.0,"address":{"Line1":"","Line2":"","Line3":"","Suburb":"","State":"","Country":"","Latitude":38.569223,"Longitude":21.916909}}{"ECN":52847,"Name":"Daniel Meyer","ActiveVANs":106,"AccountBalance":4424695.0,"address":{"Line1":"","Line2":"","Line3":"","Suburb":"","State":"","Country":"","Latitude":56.007656,"Longitude":-3.392672}}{"ECN":11105192,"Name":"Aubrey :)","ActiveVANs":848,"AccountBalance":9373399.0,"address":{"Line1":"","Line2":"","Line3":"","Suburb":"","State":"","Country":"","Latitude":52.773901,"Longitude":-6.953058}}{"ECN":196039,"Name":"www.oscarsanchez.net","ActiveVANs":877,"AccountBalance":7277437.0,"address":{"Line1":"","Line2":"","Line3":"","Suburb":"","State":"","Country":"","Latitude":43.461606,"Longitude":-3.801688}}{"ECN":70865,"Name":"Marco Teodonio","ActiveVANs":888,"AccountBalance":5011770.0,"address":{"Line1":"","Line2":"","Line3":"","Suburb":"","State":"","Country":"","Latitude":-25.688447,"Longitude":-54.440818}}{"ECN":6188760,"Name":"Busa Péter","ActiveVANs":848,"AccountBalance":8402571.0,"address":{"Line1":"","Line2":"","Line3":"","Suburb":"","State":"","Country":"","Latitude":47.843579,"Longitude":17.462082}}{"ECN":286439,"Name":"Mike Cavaroc","ActiveVANs":829,"AccountBalance":9619519.0,"address":{"Line1":"","Line2":"","Line3":"","Suburb":"","State":"","Country":"","Latitude":35.050024,"Longitude":-109.804788}}{"ECN":1283563,"Name":"mabut","ActiveVANs":431,"AccountBalance":3021237.0,"address":{"Line1":"","Line2":"","Line3":"","Suburb":"","State":"","Country":"","Latitude":22.164196,"Longitude":-159.667397}}{"ECN":1336919,"Name":"© Kojak","ActiveVANs":277,"AccountBalance":4957914.0,"address":{"Line1":"","Line2":"","Line3":"","Suburb":"","State":"","Country":"","Latitude":47.553128,"Longitude":10.750465}}{"ECN":1343841,"Name":"H. C. Steensen","ActiveVANs":727,"AccountBalance":1341277.0,"address":{"Line1":"","Line2":"","Line3":"","Suburb":"","State":"","Country":"","Latitude":55.613165,"Longitude":12.968073}}{"ECN":4976484,"Name":"wx","ActiveVANs":844,"AccountBalance":9449206.0,"address":{"Line1":"","Line2":"","Line3":"","Suburb":"","State":"","Country":"","Latitude":46.108618,"Longitude":6.867528}}{"ECN":1195113,"Name":"Andrey Jitkov","ActiveVANs":661,"AccountBalance":8643170.0,"address":{"Line1":"","Line2":"","Line3":"","Suburb":"","State":"","Country":"","Latitude":55.719367,"Longitude":37.486424}}{"ECN":1549176,"Name":"Busa Péter","ActiveVANs":852,"AccountBalance":6308784.0,"address":{"Line1":"","Line2":"","Line3":"","Suburb":"","State":"","Country":"","Latitude":47.582084,"Longitude":17.767639}}{"ECN":2127008,"Name":"Ralph Maughan","ActiveVANs":686,"AccountBalance":3609620.0,"address":{"Line1":"","Line2":"","Line3":"","Suburb":"","State":"","Country":"","Latitude":41.605303,"Longitude":-111.586761}}{"ECN":2421940,"Name":"Lukas Novak","ActiveVANs":232,"AccountBalance":4339107.0,"address":{"Line1":"","Line2":"","Line3":"","Suburb":"","State":"","Country":"","Latitude":36.059681,"Longitude":-112.105286}}{"ECN":8197305,"Name":"C.e.C.v","ActiveVANs":854,"AccountBalance":4214545.0,"address":{"Line1":"","Line2":"","Line3":"","Suburb":"","State":"","Country":"","Latitude":-33.407478,"Longitude":-71.699395}}{"ECN":6126299,"Name":"marksimms","ActiveVANs":674,"AccountBalance":8862819.0,"address":{"Line1":"","Line2":"","Line3":"","Suburb":"","State":"","Country":"","Latitude":51.448003,"Longitude":-0.277609}}{"ECN":55016,"Name":"Marcelo E. Salgado","ActiveVANs":160,"AccountBalance":1561031.0,"address":{"Line1":"","Line2":"","Line3":"","Suburb":"","State":"","Country":"","Latitude":-18.771278,"Longitude":-56.258326}}{"ECN":1640188,"Name":"lacitot","ActiveVANs":923,"AccountBalance":5663108.0,"address":{"Line1":"","Line2":"","Line3":"","Suburb":"","State":"","Country":"","Latitude":48.953621,"Longitude":20.428219}}{"ECN":2935837,"Name":"Enrique Ortiz de Zárate","ActiveVANs":895,"AccountBalance":8399210.0,"address":{"Line1":"","Line2":"","Line3":"","Suburb":"","State":"","Country":"","Latitude":42.951271,"Longitude":-2.324939}}{"ECN":355622,"Name":"illusandpics.com","ActiveVANs":402,"AccountBalance":8097554.0,"address":{"Line1":"","Line2":"","Line3":"","Suburb":"","State":"","Country":"","Latitude":49.710939,"Longitude":-54.7332}}{"ECN":202578,"Name":"Serdar Bilecen","ActiveVANs":117,"AccountBalance":7961088.0,"address":{"Line1":"","Line2":"","Line3":"","Suburb":"","State":"","Country":"","Latitude":40.612128,"Longitude":31.286316}}{"ECN":9653590,"Name":"fotinos andreopoulos","ActiveVANs":924,"AccountBalance":2693637.0,"address":{"Line1":"","Line2":"","Line3":"","Suburb":"","State":"","Country":"","Latitude":38.571189,"Longitude":21.914872}}{"ECN":2371950,"Name":"Giulio Botticelli","ActiveVANs":284,"AccountBalance":2455979.0,"address":{"Line1":"","Line2":"","Line3":"","Suburb":"","State":"","Country":"","Latitude":35.514553,"Longitude":12.552137}}{"ECN":1340803,"Name":"Snemann","ActiveVANs":252,"AccountBalance":1253738.0,"address":{"Line1":"","Line2":"","Line3":"","Suburb":"","State":"","Country":"","Latitude":59.548763,"Longitude":11.187515}}{"ECN":520878,"Name":"Busa Péter","ActiveVANs":495,"AccountBalance":5051526.0,"address":{"Line1":"","Line2":"","Line3":"","Suburb":"","State":"","Country":"","Latitude":47.870186,"Longitude":17.466202}}{"ECN":4738479,"Name":"Busa Péter","ActiveVANs":300,"AccountBalance":9953267.0,"address":{"Line1":"","Line2":"","Line3":"","Suburb":"","State":"","Country":"","Latitude":47.633354,"Longitude":17.571602}}{"ECN":2395577,"Name":"John Gillett","ActiveVANs":764,"AccountBalance":5632483.0,"address":{"Line1":"","Line2":"","Line3":"","Suburb":"","State":"","Country":"","Latitude":43.30031,"Longitude":-79.844792}}{"ECN":2470351,"Name":"Pavels Dunaicevs","ActiveVANs":706,"AccountBalance":2420497.0,"address":{"Line1":"","Line2":"","Line3":"","Suburb":"","State":"","Country":"","Latitude":56.965614,"Longitude":23.713217}}{"ECN":6348257,"Name":"Neim Sejfuli ♦","ActiveVANs":590,"AccountBalance":3179256.0,"address":{"Line1":"","Line2":"","Line3":"","Suburb":"","State":"","Country":"","Latitude":42.00479,"Longitude":21.060791}}{"ECN":10248178,"Name":"mesias","ActiveVANs":350,"AccountBalance":6164148.0,"address":{"Line1":"","Line2":"","Line3":"","Suburb":"","State":"","Country":"","Latitude":43.209805,"Longitude":-2.554321}}{"ECN":1177785,"Name":"DarrinJ","ActiveVANs":594,"AccountBalance":5543535.0,"address":{"Line1":"","Line2":"","Line3":"","Suburb":"","State":"","Country":"","Latitude":13.441383,"Longitude":103.85891}}{"ECN":4785924,"Name":"yves floret","ActiveVANs":647,"AccountBalance":5268307.0,"address":{"Line1":"","Line2":"","Line3":"","Suburb":"","State":"","Country":"","Latitude":36.853678,"Longitude":-111.369422}}{"ECN":459592,"Name":"中村脩-Osamu nakamura","ActiveVANs":265,"AccountBalance":9433898.0,"address":{"Line1":"","Line2":"","Line3":"","Suburb":"","State":"","Country":"","Latitude":36.85751,"Longitude":138.140202}}{"ECN":377931,"Name":"David Thyberg","ActiveVANs":901,"AccountBalance":3756470.0,"address":{"Line1":"","Line2":"","Line3":"","Suburb":"","State":"","Country":"","Latitude":-20.250874,"Longitude":44.418486}}{"ECN":170330,"Name":"Brent Townshend","ActiveVANs":378,"AccountBalance":7109537.0,"address":{"Line1":"","Line2":"","Line3":"","Suburb":"","State":"","Country":"","Latitude":48.866011,"Longitude":2.315115}}{"ECN":5628541,"Name":"Buck Cash","ActiveVANs":600,"AccountBalance":8879758.0,"address":{"Line1":"","Line2":"","Line3":"","Suburb":"","State":"","Country":"","Latitude":40.438406,"Longitude":-80.018985}}{"ECN":51101,"Name":"baldinger reisen ag, waedenswil/switzerland","ActiveVANs":731,"AccountBalance":1343661.0,"address":{"Line1":"","Line2":"","Line3":"","Suburb":"","State":"","Country":"","Latitude":65.205068,"Longitude":-21.09993}}{"ECN":4352968,"Name":"wx","ActiveVANs":927,"AccountBalance":8656383.0,"address":{"Line1":"","Line2":"","Line3":"","Suburb":"","State":"","Country":"","Latitude":46.137084,"Longitude":6.426079}}{"ECN":2345674,"Name":"Busa Péter","ActiveVANs":939,"AccountBalance":6828848.0,"address":{"Line1":"","Line2":"","Line3":"","Suburb":"","State":"","Country":"","Latitude":47.343243,"Longitude":17.791328}}{"ECN":3521484,"Name":"Busa Péter","ActiveVANs":446,"AccountBalance":5411378.0,"address":{"Line1":"","Line2":"","Line3":"","Suburb":"","State":"","Country":"","Latitude":47.74498,"Longitude":17.514782}}{"ECN":8868820,"Name":"Neim Sejfuli ♦","ActiveVANs":208,"AccountBalance":2074545.0,"address":{"Line1":"","Line2":"","Line3":"","Suburb":"","State":"","Country":"","Latitude":42.060318,"Longitude":20.884666}}{"ECN":206560,"Name":"Serdar Bilecen","ActiveVANs":938,"AccountBalance":4488475.0,"address":{"Line1":"","Line2":"","Line3":"","Suburb":"","State":"","Country":"","Latitude":40.770012,"Longitude":39.608116}}{"ECN":1488354,"Name":"中村脩-Osamu nakamura","ActiveVANs":221,"AccountBalance":6794980.0,"address":{"Line1":"","Line2":"","Line3":"","Suburb":"","State":"","Country":"","Latitude":37.829921,"Longitude":138.213072}}{"ECN":3334377,"Name":"irene.italy","ActiveVANs":221,"AccountBalance":5972811.0,"address":{"Line1":"","Line2":"","Line3":"","Suburb":"","State":"","Country":"","Latitude":46.411603,"Longitude":11.591349}}{"ECN":12668091,"Name":"► Marco Vanzo","ActiveVANs":449,"AccountBalance":7815506.0,"address":{"Line1":"","Line2":"","Line3":"","Suburb":"","State":"","Country":"","Latitude":46.460164,"Longitude":11.864547}}{"ECN":11177556,"Name":"Zsuzsanna W","ActiveVANs":976,"AccountBalance":6771079.0,"address":{"Line1":"","Line2":"","Line3":"","Suburb":"","State":"","Country":"","Latitude":-46.578215,"Longitude":168.307543}}{"ECN":67333,"Name":"Marco Teodonio","ActiveVANs":589,"AccountBalance":7857663.0,"address":{"Line1":"","Line2":"","Line3":"","Suburb":"","State":"","Country":"","Latitude":-22.217285,"Longitude":-67.798176}}{"ECN":2850309,"Name":"Victor Galanin","ActiveVANs":314,"AccountBalance":5629582.0,"address":{"Line1":"","Line2":"","Line3":"","Suburb":"","State":"","Country":"","Latitude":27.130876,"Longitude":33.571987}}{"ECN":1286406,"Name":"mabut","ActiveVANs":248,"AccountBalance":4977466.0,"address":{"Line1":"","Line2":"","Line3":"","Suburb":"","State":"","Country":"","Latitude":-1.460337,"Longitude":35.109558}}{"ECN":4136208,"Name":"Busa Péter","ActiveVANs":103,"AccountBalance":3412867.0,"address":{"Line1":"","Line2":"","Line3":"","Suburb":"","State":"","Country":"","Latitude":47.274105,"Longitude":18.062897}}{"ECN":8476696,"Name":"Armagnac","ActiveVANs":344,"AccountBalance":8763601.0,"address":{"Line1":"","Line2":"","Line3":"","Suburb":"","State":"","Country":"","Latitude":-4.563249,"Longitude":55.49366}}{"ECN":6189344,"Name":"yves floret","ActiveVANs":746,"AccountBalance":7845045.0,"address":{"Line1":"","Line2":"","Line3":"","Suburb":"","State":"","Country":"","Latitude":45.385908,"Longitude":6.654494}}{"ECN":6934835,"Name":"Olivier Faugeras","ActiveVANs":904,"AccountBalance":4120606.0,"address":{"Line1":"","Line2":"","Line3":"","Suburb":"","State":"","Country":"","Latitude":48.862132,"Longitude":2.389634}}{"ECN":4214329,"Name":"John Su","ActiveVANs":363,"AccountBalance":7303994.0,"address":{"Line1":"","Line2":"","Line3":"","Suburb":"","State":"","Country":"","Latitude":30.139189,"Longitude":118.282928}}{"ECN":8846650,"Name":"© Massimo De Candido","ActiveVANs":635,"AccountBalance":8406745.0,"address":{"Line1":"","Line2":"","Line3":"","Suburb":"","State":"","Country":"","Latitude":45.886752,"Longitude":8.456469}}{"ECN":945986,"Name":"Arcadi","ActiveVANs":302,"AccountBalance":9073360.0,"address":{"Line1":"","Line2":"","Line3":"","Suburb":"","State":"","Country":"","Latitude":40.909102,"Longitude":0.483055}}{"ECN":5108615,"Name":"Nicolas Mertens","ActiveVANs":871,"AccountBalance":8094662.0,"address":{"Line1":"","Line2":"","Line3":"","Suburb":"","State":"","Country":"","Latitude":36.594858,"Longitude":-106.755394}}{"ECN":6095512,"Name":"♫ Swissmay","ActiveVANs":507,"AccountBalance":4874608.0,"address":{"Line1":"","Line2":"","Line3":"","Suburb":"","State":"","Country":"","Latitude":46.744566,"Longitude":7.641592}}{"ECN":1541286,"Name":"Don Albonico","ActiveVANs":615,"AccountBalance":2983293.0,"address":{"Line1":"","Line2":"","Line3":"","Suburb":"","State":"","Country":"","Latitude":36.994755,"Longitude":-112.007471}}{"ECN":11309226,"Name":"rosina lamberti","ActiveVANs":405,"AccountBalance":5859342.0,"address":{"Line1":"","Line2":"","Line3":"","Suburb":"","State":"","Country":"","Latitude":-38.330766,"Longitude":144.695692}}{"ECN":76734,"Name":"Juanlu","ActiveVANs":821,"AccountBalance":4041413.0,"address":{"Line1":"","Line2":"","Line3":"","Suburb":"","State":"","Country":"","Latitude":36.522413,"Longitude":-5.662347}}{"ECN":196037,"Name":"www.oscarsanchez.net","ActiveVANs":925,"AccountBalance":5969727.0,"address":{"Line1":"","Line2":"","Line3":"","Suburb":"","State":"","Country":"","Latitude":43.470686,"Longitude":-3.776196}}{"ECN":1338852,"Name":"H. C. Steensen","ActiveVANs":734,"AccountBalance":9236499.0,"address":{"Line1":"","Line2":"","Line3":"","Suburb":"","State":"","Country":"","Latitude":37.096924,"Longitude":-8.47504}}{"ECN":1269734,"Name":"Svein Solhaug","ActiveVANs":398,"AccountBalance":9461801.0,"address":{"Line1":"","Line2":"","Line3":"","Suburb":"","State":"","Country":"","Latitude":70.144796,"Longitude":28.851471}}{"ECN":1075687,"Name":"Ron Cooper","ActiveVANs":819,"AccountBalance":4646506.0,"address":{"Line1":"","Line2":"","Line3":"","Suburb":"","State":"","Country":"","Latitude":46.009839,"Longitude":9.285164}}{"ECN":58363,"Name":"Norbert MAIER","ActiveVANs":716,"AccountBalance":5419931.0,"address":{"Line1":"","Line2":"","Line3":"","Suburb":"","State":"","Country":"","Latitude":45.556372,"Longitude":10.714073}}{"ECN":890788,"Name":"Radek Čampa","ActiveVANs":678,"AccountBalance":2049150.0,"address":{"Line1":"","Line2":"","Line3":"","Suburb":"","State":"","Country":"","Latitude":49.49195,"Longitude":18.222713}}{"ECN":8730610,"Name":"funtor","ActiveVANs":296,"AccountBalance":3325947.0,"address":{"Line1":"","Line2":"","Line3":"","Suburb":"","State":"","Country":"","Latitude":36.918058,"Longitude":-111.415787}}{"ECN":3008013,"Name":"Lukas Novak","ActiveVANs":460,"AccountBalance":2539477.0,"address":{"Line1":"","Line2":"","Line3":"","Suburb":"","State":"","Country":"","Latitude":51.717989,"Longitude":-116.509409}}{"ECN":565018,"Name":"Pavels Dunaicevs","ActiveVANs":544,"AccountBalance":8093572.0,"address":{"Line1":"","Line2":"","Line3":"","Suburb":"","State":"","Country":"","Latitude":56.971626,"Longitude":23.765488}}{"ECN":2217257,"Name":"Busa Péter","ActiveVANs":416,"AccountBalance":4911168.0,"address":{"Line1":"","Line2":"","Line3":"","Suburb":"","State":"","Country":"","Latitude":47.273755,"Longitude":17.986851}}{"ECN":3008041,"Name":"Lukas Novak","ActiveVANs":961,"AccountBalance":6091156.0,"address":{"Line1":"","Line2":"","Line3":"","Suburb":"","State":"","Country":"","Latitude":51.417409,"Longitude":-116.219387}}{"ECN":636724,"Name":"Lair Jean Claude","ActiveVANs":579,"AccountBalance":1687539.0,"address":{"Line1":"","Line2":"","Line3":"","Suburb":"","State":"","Country":"","Latitude":-16.475926,"Longitude":-151.714239}}{"ECN":511806,"Name":"Busa Péter","ActiveVANs":805,"AccountBalance":7798507.0,"address":{"Line1":"","Line2":"","Line3":"","Suburb":"","State":"","Country":"","Latitude":47.273056,"Longitude":17.74807}}{"ECN":727360,"Name":"NAGY Albert","ActiveVANs":378,"AccountBalance":8273793.0,"address":{"Line1":"","Line2":"","Line3":"","Suburb":"","State":"","Country":"","Latitude":47.605512,"Longitude":19.053833}}{"ECN":5148235,"Name":"mechanics","ActiveVANs":947,"AccountBalance":9506026.0,"address":{"Line1":"","Line2":"","Line3":"","Suburb":"","State":"","Country":"","Latitude":35.62746,"Longitude":139.741459}}{"ECN":2082127,"Name":"Busa Péter","ActiveVANs":192,"AccountBalance":5179971.0,"address":{"Line1":"","Line2":"","Line3":"","Suburb":"","State":"","Country":"","Latitude":47.850088,"Longitude":17.508516}}{"ECN":1589607,"Name":"zerega","ActiveVANs":519,"AccountBalance":9400340.0,"address":{"Line1":"","Line2":"","Line3":"","Suburb":"","State":"","Country":"","Latitude":34.006228,"Longitude":36.204404}}{"ECN":410991,"Name":"Sven Goelles","ActiveVANs":950,"AccountBalance":2498777.0,"address":{"Line1":"","Line2":"","Line3":"","Suburb":"","State":"","Country":"","Latitude":25.139282,"Longitude":55.187352}}{"ECN":6012,"Name":"Mrgud","ActiveVANs":149,"AccountBalance":9807448.0,"address":{"Line1":"","Line2":"","Line3":"","Suburb":"","State":"","Country":"","Latitude":45.119144,"Longitude":15.584493}}{"ECN":4989314,"Name":"JeffSullivan (www.MyPhotoGuides.com)","ActiveVANs":113,"AccountBalance":4172000.0,"address":{"Line1":"","Line2":"","Line3":"","Suburb":"","State":"","Country":"","Latitude":37.23436,"Longitude":-118.597283}}{"ECN":2115987,"Name":"Phil©","ActiveVANs":910,"AccountBalance":2709887.0,"address":{"Line1":"","Line2":"","Line3":"","Suburb":"","State":"","Country":"","Latitude":44.859519,"Longitude":0.34152}}{"ECN":229544,"Name":"Pieter","ActiveVANs":223,"AccountBalance":7603168.0,"address":{"Line1":"","Line2":"","Line3":"","Suburb":"","State":"","Country":"","Latitude":50.852972,"Longitude":4.401634}}{"ECN":58283,"Name":"Norbert MAIER","ActiveVANs":328,"AccountBalance":7668088.0,"address":{"Line1":"","Line2":"","Line3":"","Suburb":"","State":"","Country":"","Latitude":48.059496,"Longitude":12.898464}}{"ECN":112110,"Name":"John Gillett","ActiveVANs":612,"AccountBalance":2748651.0,"address":{"Line1":"","Line2":"","Line3":"","Suburb":"","State":"","Country":"","Latitude":43.641805,"Longitude":-79.386907}}{"ECN":4446966,"Name":"Bálint Tünde","ActiveVANs":126,"AccountBalance":4619534.0,"address":{"Line1":"","Line2":"","Line3":"","Suburb":"","State":"","Country":"","Latitude":47.88147,"Longitude":17.454357}}{"ECN":91966,"Name":"Arnáiz","ActiveVANs":753,"AccountBalance":5960554.0,"address":{"Line1":"","Line2":"","Line3":"","Suburb":"","State":"","Country":"","Latitude":46.358184,"Longitude":14.087219}}{"ECN":6013503,"Name":"PeSchn","ActiveVANs":269,"AccountBalance":4307566.0,"address":{"Line1":"","Line2":"","Line3":"","Suburb":"","State":"","Country":"","Latitude":48.694756,"Longitude":9.943142}}{"ECN":1781593,"Name":"JeffSullivan (www.MyPhotoGuides.com)","ActiveVANs":442,"AccountBalance":4167412.0,"address":{"Line1":"","Line2":"","Line3":"","Suburb":"","State":"","Country":"","Latitude":36.995852,"Longitude":-112.006624}}{"ECN":704119,"Name":"Busa Péter","ActiveVANs":117,"AccountBalance":6661098.0,"address":{"Line1":"","Line2":"","Line3":"","Suburb":"","State":"","Country":"","Latitude":43.272206,"Longitude":17.056789}}{"ECN":85624,"Name":"Juanra","ActiveVANs":218,"AccountBalance":6188080.0,"address":{"Line1":"","Line2":"","Line3":"","Suburb":"","State":"","Country":"","Latitude":37.924329,"Longitude":-0.722609}}{"ECN":52350,"Name":"Santiago Rios","ActiveVANs":667,"AccountBalance":9921466.0,"address":{"Line1":"","Line2":"","Line3":"","Suburb":"","State":"","Country":"","Latitude":-25.687422,"Longitude":-54.439831}}{"ECN":36482,"Name":"dancer","ActiveVANs":517,"AccountBalance":7661037.0,"address":{"Line1":"","Line2":"","Line3":"","Suburb":"","State":"","Country":"","Latitude":45.083938,"Longitude":13.632714}}{"ECN":7251846,"Name":"Busa Péter","ActiveVANs":449,"AccountBalance":2609563.0,"address":{"Line1":"","Line2":"","Line3":"","Suburb":"","State":"","Country":"","Latitude":47.687334,"Longitude":17.629623}}{"ECN":1551756,"Name":"rosina lamberti","ActiveVANs":685,"AccountBalance":3569283.0,"address":{"Line1":"","Line2":"","Line3":"","Suburb":"","State":"","Country":"","Latitude":-37.75,"Longitude":145.116667}}{"ECN":2397841,"Name":"Tom Grubbe","ActiveVANs":382,"AccountBalance":3107262.0,"address":{"Line1":"","Line2":"","Line3":"","Suburb":"","State":"","Country":"","Latitude":37.427928,"Longitude":-122.43987}}{"ECN":1237915,"Name":"jirivrobel","ActiveVANs":204,"AccountBalance":5637079.0,"address":{"Line1":"","Line2":"","Line3":"","Suburb":"","State":"","Country":"","Latitude":48.960159,"Longitude":14.923811}}{"ECN":359324,"Name":"baldinger reisen ag, waedenswil/switzerland","ActiveVANs":795,"AccountBalance":9989178.0,"address":{"Line1":"","Line2":"","Line3":"","Suburb":"","State":"","Country":"","Latitude":46.430966,"Longitude":8.663492}}{"ECN":483742,"Name":"Julia Wahl","ActiveVANs":580,"AccountBalance":7906529.0,"address":{"Line1":"","Line2":"","Line3":"","Suburb":"","State":"","Country":"","Latitude":20.707468,"Longitude":-156.239491}}{"ECN":1087397,"Name":"Sigmund Rise","ActiveVANs":485,"AccountBalance":8189239.0,"address":{"Line1":"","Line2":"","Line3":"","Suburb":"","State":"","Country":"","Latitude":62.240111,"Longitude":9.555531}}{"ECN":2846123,"Name":"y_komatsu","ActiveVANs":840,"AccountBalance":1385752.0,"address":{"Line1":"","Line2":"","Line3":"","Suburb":"","State":"","Country":"","Latitude":37.28935,"Longitude":138.791313}}{"ECN":2533559,"Name":"Cleber Lima","ActiveVANs":267,"AccountBalance":2034413.0,"address":{"Line1":"","Line2":"","Line3":"","Suburb":"","State":"","Country":"","Latitude":-6.241628,"Longitude":-35.036988}}{"ECN":86246,"Name":"Juanra","ActiveVANs":800,"AccountBalance":5851036.0,"address":{"Line1":"","Line2":"","Line3":"","Suburb":"","State":"","Country":"","Latitude":38.23009,"Longitude":-0.528374}}{"ECN":405740,"Name":"中村脩-Osamu nakamura","ActiveVANs":296,"AccountBalance":5962783.0,"address":{"Line1":"","Line2":"","Line3":"","Suburb":"","State":"","Country":"","Latitude":37.580909,"Longitude":139.502249}}{"ECN":12848417,"Name":"funtor","ActiveVANs":348,"AccountBalance":1886565.0,"address":{"Line1":"","Line2":"","Line3":"","Suburb":"","State":"","Country":"","Latitude":51.055093,"Longitude":13.745323}}{"ECN":291091,"Name":"esseil","ActiveVANs":597,"AccountBalance":6337620.0,"address":{"Line1":"","Line2":"","Line3":"","Suburb":"","State":"","Country":"","Latitude":43.869312,"Longitude":8.006684}}{"ECN":1183261,"Name":"Busa Péter","ActiveVANs":232,"AccountBalance":4835308.0,"address":{"Line1":"","Line2":"","Line3":"","Suburb":"","State":"","Country":"","Latitude":43.708462,"Longitude":15.823574}}{"ECN":1637150,"Name":"Mariví Jiménez","ActiveVANs":862,"AccountBalance":4945937.0,"address":{"Line1":"","Line2":"","Line3":"","Suburb":"","State":"","Country":"","Latitude":-16.30004,"Longitude":-71.414566}}{"ECN":507703,"Name":"Busa Péter","ActiveVANs":749,"AccountBalance":9187268.0,"address":{"Line1":"","Line2":"","Line3":"","Suburb":"","State":"","Country":"","Latitude":47.633586,"Longitude":17.568769}}{"ECN":55100,"Name":"blackone","ActiveVANs":753,"AccountBalance":4578644.0,"address":{"Line1":"","Line2":"","Line3":"","Suburb":"","State":"","Country":"","Latitude":69.35291,"Longitude":17.122707}}{"ECN":291648,"Name":"kamil krawczak","ActiveVANs":410,"AccountBalance":1674262.0,"address":{"Line1":"","Line2":"","Line3":"","Suburb":"","State":"","